Barcode,Creditcard,TapAndGo,Asset_ID,Meter_ID,Location_Description,Latitude,Longitude,Location
MPM1630378,Yes,Yes,1630378,871A,"Morrison Place between Victoria Parade and Albert Street, approximately 19m West of St Vincent's Health Australia Ltd, 14-18 Morrison Place, EAST MELBOURNE VIC 3002",-37.8090933,144.9765624,"-37.8090933, 144.9765624"
MPM1647109,Yes,Yes,1647109,800A,"St Kilda Road between Moubray Street and High Street, approximately 39m NW of Wesley College Melbourne, Wesley College, 567-581 St Kilda Road, MELBOURNE VIC 3004",-37.8484494,144.9800677,"-37.8484494, 144.9800677"
MPM1647119,Yes,Yes,1647119,811D,"Moubray Street between St Kilda Road and Punt Road, approximately 24m SE of Ormond Collective, 17 Moubray Street, MELBOURNE VIC 3004",-37.8480156,144.9814119,"-37.8480156, 144.9814119"
MPM1647129,Yes,Yes,1647129,884B,"Simpson Street between Grey Street and Albert Street, approximately 8m South of East Melbourne Tennis Academy, 155 Simpson Street, EAST MELBOURNE VIC 3002",-37.8116099,144.9885252,"-37.8116099, 144.9885252"
MPM1647136,Yes,Yes,1647136,802E,"St Kilda Road between Armadale Street and Commercial Road, approximately 27m SW of Mariner Travel Pty Ltd, Ground 473 St Kilda Road, MELBOURNE VIC 3004",-37.8418909,144.9777211,"-37.8418909, 144.9777211"
MPM1647140,Yes,Yes,1647140,365E,"Bouverie Street between Lincoln Square South and Pelham Street, approximately 3m SE of Carpark Ground 165 Bouverie Street, CARLTON VIC 3053",-37.8027478,144.961933,"-37.8027478, 144.961933"
MPM1647143,Yes,Yes,1647143,801F,"St Kilda Road between Commercial Road and Moubray Street, approximately 26m West of Spotless, Part Ground, Levels 1-2, 549 St Kilda Road, MELBOURNE VIC 3004",-37.8466506,144.9794151,"-37.8466506, 144.9794151"
MPM1647151,Yes,Yes,1647151,823D,"Kings Domain South, approximately 72m West of The Nursery and Works Yard, Royal Botanic Gardens Victoria, 48 Birdwood Avenue, MELBOURNE VIC 3004",-37.8325244,144.9782961,"-37.8325244, 144.9782961"
MPM1647154,Yes,Yes,1647154,859B,"Lansdowne Street between Albert Street and Victoria Parade, approximately 4m NW of 12 Lansdowne Street,",-37.8094152,144.9785245,"-37.8094152, 144.9785245"
MPM1647158,Yes,Yes,1647158,867C,"Albert Street between Nicholson Street and Gisborne Street, approximately 2m NW of St Peters Vicarage, 473 Albert Street, EAST MELBOURNE VIC 3002",-37.8095731,144.9747887,"-37.8095731, 144.9747887"
MPM1647172,Yes,Yes,1647172,765B,Wells Street between Grant Street and Miles Street,-37.8276594,144.9685954,"-37.8276594, 144.9685954"
MPM1647175,Yes,Yes,1647175,766A,"Wells Street between Miles Street and Coventry Street, approximately 66m SE of 6-12 Miles Street, SOUTHBANK VIC 3006",-37.828749,144.9687159,"-37.828749, 144.9687159"
MPM1647176,Yes,Yes,1647176,757A,"Moore Street between Miles Street and Kings Way, approximately 57m SW of Victorian College Of The Arts Secondary School, 55-65 Miles Street, SOUTHBANK VIC 3006",-37.8284894,144.9645873,"-37.8284894, 144.9645873"
MPM1647177,Yes,Yes,1647177,752B,"Haig Street between Clarendon Street and West Gate Freeway, approximately 24m West of 65-71 Haig Street, SOUTHBANK VIC 3006",-37.8277892,144.9561701,"-37.8277892, 144.9561701"
MPM1647183,Yes,Yes,1647183,785B,"Miles Street between Wells Street and Dodds Street, approximately 31m SW of 6-12 Miles Street, SOUTHBANK VIC 3006",-37.828702,144.9678544,"-37.828702, 144.9678544"
MPM1647184,Yes,Yes,1647184,757B,"Moore Street between Miles Street and Kings Way, approximately 62m West of Victorian College Of The Arts Secondary School, 55-65 Miles Street, SOUTHBANK VIC 3006",-37.8283498,144.9644792,"-37.8283498, 144.9644792"
MPM1647186,Yes,Yes,1647186,765F,"Wells Street between Grant Street and Miles Street, approximately 60m East of Grant Street Reserve, 25-45 Grant Street, SOUTHBANK VIC 3006",-37.8259178,144.9692902,"-37.8259178, 144.9692902"
MPM1647191,Yes,Yes,1647191,750D,"Whiteman Street between West Gate Freeway and Clarendon Street, approximately 53m East of Railway Revegetation Area, Rear 33 Meaden Street, SOUTHBANK VIC 3006",-37.8274161,144.9551837,"-37.8274161, 144.9551837"
MPM1647193,Yes,Yes,1647193,920A,"Seafarer Lane between Bourke Street and Collins Street, approximately 15m West of Gowrie @ The Harbour, 20 Seafarer Lane, DOCKLANDS VIC 3008",-37.8205362,144.9428961,"-37.8205362, 144.9428961"
MPM1647194,Yes,Yes,1647194,752C,"Haig Street between Clarendon Street and West Gate Freeway, approximately 2m SE of Launch Housing Southbank, Launch Housing, 52-70 Haig Street, SOUTHBANK VIC 3006",-37.8270983,144.9569733,"-37.8270983, 144.9569733"
MPM1647196,Yes,Yes,1647196,901B,"Aurora Lane between Bourke Street and Collins Street, approximately 31m North of Part Ground & Mezzanine, 710 Collins Street, DOCKLANDS VIC 3008",-37.8196872,144.9505883,"-37.8196872, 144.9505883"
MPM1647197,Yes,Yes,1647197,938A,"Brentani Way between Village Street and Georgiana Street, approximately 3m NW of San Xuan Cafe, 15 Brentani Way, DOCKLANDS VIC 3008",-37.8214445,144.9504141,"-37.8214445, 144.9504141"
MPM1647198,Yes,Yes,1647198,908B,"Harbour Esplanade between McCrae Street and Collins Street, approximately 37m South of Automotive Centre Of Excellence, 2-48 Harbour Esplanade, DOCKLANDS VIC 3008",-37.8220578,144.9478304,"-37.8220578, 144.9478304"
MPM1647201,Yes,Yes,1647201,901A,"Aurora Lane between Bourke Street and Collins Street, approximately 40m NW of Travelodge Hotel Melbourne Docklands, Travelodge Docklands, 66 Aurora Lane, DOCKLANDS VIC 3008",-37.8187687,144.9498896,"-37.8187687, 144.9498896"
MPM1647203,Yes,Yes,1647203,947D,"Collins Street between Merchant Street and Bourke Street, approximately 7m SE of An Di Docklands, 854 Collins Street, DOCKLANDS VIC 3008",-37.8211808,144.9440267,"-37.8211808, 144.9440267"
MPM1647205,Yes,Yes,1647205,947B,"Collins Street between Merchant Street and Bourke Street, approximately 5m SE of Teeny Tiny Cafe, 858 Collins Street, DOCKLANDS VIC 3008",-37.8210993,144.9436863,"-37.8210993, 144.9436863"
MPM1647207,Yes,Yes,1647207,944B,"Collins Street between Harbour Esplanade and Navigation Drive, approximately 25m West of Docklands Park, 1-91 Harbour Esplanade, DOCKLANDS VIC 3008",-37.8212446,144.9470394,"-37.8212446, 144.9470394"
MPM1647208,Yes,Yes,1647208,944A,"Collins Street between Harbour Esplanade and Navigation Drive, approximately 48m NW of Docklands Park, 1-91 Harbour Esplanade, DOCKLANDS VIC 3008",-37.8210702,144.946852,"-37.8210702, 144.946852"
MPM1647213,Yes,Yes,1647213,940C,"Approximately 4m North of Sergy Boy, Shop 1-2, 699 Collins Street, DOCKLANDS VIC 3008",-37.8199502,144.9514764,"-37.8199502, 144.9514764"
MPM1647220,Yes,Yes,1647220,753C,"Kavanagh Street between Southbank Boulevard and Power Street, approximately 71m North of State Coroner's Office, 65 Kavanagh Street, SOUTHBANK VIC 3006",-37.8235144,144.9647934,"-37.8235144, 144.9647934"
MPM1647230,Yes,Yes,1647230,774A,"Intersection of St Kilda Road and Anzac Avenue, approximately 10m NE of Department Of Defence, Victoria Barracks Melbourne, 256-310 St Kilda Road, SOUTHBANK VIC 3006",-37.8272642,144.9711265,"-37.8272642, 144.9711265"
MPM1647232,Yes,Yes,1647232,772A,"St Kilda Road between Wadey Street and Anzac Avenue, approximately 61m South of Part Suite 1, Ground 250 St Kilda Road, SOUTHBANK VIC 3006",-37.8263773,144.9710215,"-37.8263773, 144.9710215"
MPM1647236,Yes,Yes,1647236,950A,"Bourke Street between Cumberland Street and Collins Street, approximately 8m SW of Golden Express Supermarket, 862 Bourke Street, DOCKLANDS VIC 3008",-37.8202019,144.9421641,"-37.8202019, 144.9421641"
MPM1647239,Yes,Yes,1647239,913A,"Karlsruhe Lane between Collins Street and Keera Way, approximately 26m SE of 21 Karlsruhe Lane, DOCKLANDS VIC 3008",-37.821019,144.9454443,"-37.821019, 144.9454443"
MPM1647244,Yes,Yes,1647244,912A,"Navigation Drive between Bourke Street and Collins Street, approximately 60m East of 83 Geographe Street, DOCKLANDS VIC 3008",-37.8199679,144.9459555,"-37.8199679, 144.9459555"
MPM1647246,Yes,Yes,1647246,668A,"La Trobe Street between Exhibition Street and Russell Street, approximately 28m SE of 20 La Trobe Street, MELBOURNE VIC 3000",-37.8083865,144.9683559,"-37.8083865, 144.9683559"
MPM1647302,Yes,Yes,1647302,128B,"Batman Street between Adderley Street and Spencer Street, approximately 11m West of Part Ground 115 Batman Street, WEST MELBOURNE VIC 3003",-37.8114723,144.9493211,"-37.8114723, 144.9493211"
MPM1647322,Yes,Yes,1647322,587A,"Spencer Street between Jeffcott Street and Batman Street, approximately 14m NW of Curtin House, 384 Spencer Street, WEST MELBOURNE VIC 3003",-37.8114065,144.950771,"-37.8114065, 144.950771"
MPM1647323,Yes,Yes,1647323,587B,"Spencer Street between Jeffcott Street and Batman Street, approximately 3m NE of Ground 371 Spencer Street, WEST MELBOURNE VIC 3003",-37.8115961,144.9505609,"-37.8115961, 144.9505609"
MPM1647326,Yes,Yes,1647326,642A,"Little Bourke Street between Spring Street and Exhibition Street, approximately 26m SW of Secret Kitchen, 58 Little Bourke Street, MELBOURNE VIC 3000",-37.8109903,144.970619,"-37.8109903, 144.970619"
MPM1647327,Yes,Yes,1647327,535B,"Elizabeth Street between Little La Trobe Street and A'Beckett Street, approximately 5m SW of Gotcha, Part 400 Elizabeth Street, MELBOURNE VIC 3000",-37.8094616,144.9610889,"-37.8094616, 144.9610889"
MPM1647331,Yes,Yes,1647331,579B,"Spencer Street between Flinders Street and Flinders Lane, approximately 35m SW of Hotel Indigo Melbourne Flinders, 561-585 Flinders Lane, MELBOURNE VIC 3000",-37.8202893,144.9548656,"-37.8202893, 144.9548656"
MPM1647335,Yes,Yes,1647335,522A,"Russell Street between Lonsdale Street and Little Lonsdale Street, approximately 3m West of Fishing Season, 260-262 Russell Street, MELBOURNE VIC 3000",-37.8103059,144.9671068,"-37.8103059, 144.9671068"
MPM1647336,Yes,Yes,1647336,522B,"Russell Street between Lonsdale Street and Little Lonsdale Street, approximately 5m North of SBT Thai Grocer, 261-265 Russell Street, MELBOURNE VIC 3000",-37.8102038,144.96676,"-37.8102038, 144.96676"
MPM1647337,Yes,Yes,1647337,508A,"Exhibition Street between Flinders Lane and Collins Street, approximately 3m NE of Unit 1, Ground 49 Exhibition Street, MELBOURNE VIC 3000",-37.8147763,144.971669,"-37.8147763, 144.971669"
MPM1647341,Yes,Yes,1647341,514B,"Exhibition Street between Little Lonsdale Street and La Trobe Street, approximately 18m NW of Telstra Corporation Limited, Telstra Exhibition Exchange, 288-308 Exhibition Street, MELBOURNE VIC 3000",-37.8086765,144.9691514,"-37.8086765, 144.9691514"
MPM1647343,Yes,Yes,1647343,709A,"City Road between Balston Street and Kings Way, approximately 28m SE of Kiosk 133 Queens Bridge Street, SOUTHBANK VIC 3006",-37.8253282,144.9606375,"-37.8253282, 144.9606375"
MPM1647345,Yes,Yes,1647345,709C,"City Road between Power Street and Balston Street, approximately 8m NE of Great Asia World, 200 City Road, SOUTHBANK VIC 3006",-37.8245429,144.9615625,"-37.8245429, 144.9615625"
MPM1647348,Yes,Yes,1647348,731A,"Crown Casino Carpark, approximately 65m NE of 93-103 Clarendon Street, SOUTHBANK VIC 3006",-37.8262525,144.9582192,"-37.8262525, 144.9582192"
MPM1647360,Yes,Yes,1647360,573B,"King Street between Little Lonsdale Street and La Trobe Street, approximately 8m SE of William Angliss Institute Of Tafe, 311-315 King Street, MELBOURNE VIC 3000",-37.8131109,144.9540723,"-37.8131109, 144.9540723"
MPM1647366,Yes,Yes,1647366,563C,"William Street between La Trobe Street and A'Beckett Street, approximately 3m NE of Flagstaff Lodge, Flagstaff Gardens, 309 William Street, WEST MELBOURNE VIC 3003",-37.8109065,144.955876,"-37.8109065, 144.955876"
MPM1647369,Yes,Yes,1647369,792A,"Dorcas Street between Wells Street and Dodds Street, approximately 25m East of Fox Sports, 50 Dorcas Street, SOUTHBANK VIC 3006",-37.8305362,144.9687979,"-37.8305362, 144.9687979"
MPM1647371,Yes,Yes,1647371,676A,"MacKenzie Street between Victoria Street and Russell Street, approximately 2m NW of Gnd & Bmt 43 MacKenzie Street, MELBOURNE VIC 3000",-37.8076778,144.9665162,"-37.8076778, 144.9665162"
MPM1647372,Yes,Yes,1647372,755A,"Kavanagh Street between Balston Street and Kings Way, approximately 7m West of 121-125 Kavanagh Street, SOUTHBANK VIC 3006",-37.8263028,144.9618663,"-37.8263028, 144.9618663"
MPM1647374,Yes,Yes,1647374,791A,"Dorcas Street between St Kilda Road and Wells Street, approximately 14m SW of Quest On Dorcas, 8A Dorcas Street, SOUTHBANK VIC 3006",-37.8301486,144.9701124,"-37.8301486, 144.9701124"
MPM1647375,Yes,Yes,1647375,516A,"Russell Street between Flinders Street and Flinders Lane, approximately 32m North of Forum Theatre, 150-162 Flinders Street, MELBOURNE VIC 3000",-37.8164538,144.9696336,"-37.8164538, 144.9696336"
MPM1647376,Yes,Yes,1647376,559B,"William Street between Little Bourke Street and Lonsdale Street, approximately 5m North of 201 William Street, MELBOURNE VIC 3000",-37.8143929,144.957472,"-37.8143929, 144.957472"
MPM1647377,Yes,Yes,1647377,533A,"Elizabeth Street between Lonsdale Street and Little Lonsdale Street, approximately 20m SW of St Francis Church, 326 Lonsdale Street, MELBOURNE VIC 3000",-37.8117661,144.9621441,"-37.8117661, 144.9621441"
MPM1647380,Yes,Yes,1647380,780B,"Moray Street between Hancock Street and West Gate Freeway, approximately 24m West of Nationwide Parking, 31-49 Moray Street, SOUTHBANK VIC 3006",-37.8277539,144.9608513,"-37.8277539, 144.9608513"
MPM1647382,Yes,Yes,1647382,582A,"Spencer Street between Bourke Street and Little Bourke Street, approximately 18m South of City Dental Care, Shop 3, 200 Spencer Street, MELBOURNE VIC 3000",-37.8162941,144.9530295,"-37.8162941, 144.9530295"
MPM1647383,Yes,Yes,1647383,725B,"Queens Bridge Street between Power Street and Kings Way, approximately 11m North of Barnard, Baudinette & Co Pty Ltd, Unit 34, 107 Queens Bridge Street, SOUTHBANK VIC 3006",-37.8246171,144.9605065,"-37.8246171, 144.9605065"
MPM1647384,Yes,Yes,1647384,725A,"Queens Bridge Street between Power Street and Kings Way, approximately 27m South of Part Ground 58 Queens Bridge Street, SOUTHBANK VIC 3006",-37.8243939,144.9603102,"-37.8243939, 144.9603102"
MPM1647390,Yes,Yes,1647390,656D,"Lonsdale Street between William Street and King Street, approximately 4m South of Ground 572 Lonsdale Street, MELBOURNE VIC 3000",-37.8141384,144.9554342,"-37.8141384, 144.9554342"
MPM1647394,Yes,Yes,1647394,655D,"Lonsdale Street between Queen Street and William Street, approximately 65m North of The Supreme Court, 210 William Street, MELBOURNE VIC 3000",-37.8136487,144.9579603,"-37.8136487, 144.9579603"
MPM1647396,Yes,Yes,1647396,664C,"Little Lonsdale Street between William Street and King Street, approximately 13m NW of Lee Sun Seng Food, Shop 1, 535 Little Lonsdale Street, MELBOURNE VIC 3000",-37.8129558,144.9559578,"-37.8129558, 144.9559578"
MPM1647397,Yes,Yes,1647397,525A,"Russell Street between MacKenzie Street and Victoria Street, approximately 14m North of Space Hotel, 380 Russell Street, MELBOURNE VIC 3000",-37.8074804,144.9659281,"-37.8074804, 144.9659281"
MPM1647404,Yes,Yes,1647404,571B,"King Street between Little Bourke Street and Lonsdale Street, approximately 5m North of 213-215 King Street, MELBOURNE VIC 3000",-37.8151652,144.9550212,"-37.8151652, 144.9550212"
MPM1647408,Yes,Yes,1647408,792B,"Dorcas Street between Wells Street and Dodds Street, approximately 17m East of 66 Dorcas Street, SOUTHBANK VIC 3006",-37.8307463,144.9679556,"-37.8307463, 144.9679556"
MPM1647409,Yes,Yes,1647409,706B,"City Road between Southgate Avenue and Sturt Street, approximately 13m West of Bloch, Tenancy 1, Ground 35-47 City Road, SOUTHBANK VIC 3006",-37.8217501,144.9663106,"-37.8217501, 144.9663106"
MPM1647413,Yes,Yes,1647413,672B,"La Trobe Street between Queen Street and Wills Street, approximately 6m SW of Brady Residential Pty Ltd, 394-396 La Trobe Street, MELBOURNE VIC 3000",-37.8111989,144.957962,"-37.8111989, 144.957962"
MPM1647417,Yes,Yes,1647417,569A,"King Street between Little Collins Street and Bourke Street, approximately 3m SW of Project Zero Coffee, Part Ground 140 King Street, MELBOURNE VIC 3000",-37.8168349,144.9560804,"-37.8168349, 144.9560804"
MPM1647421,Yes,Yes,1647421,641B,"Bourke Street between King Street and Spencer Street, approximately 25m West of The Royal Melbourne Hotel, 621-633 Bourke Street, MELBOURNE VIC 3000",-37.8167513,144.9548636,"-37.8167513, 144.9548636"
MPM1647422,Yes,Yes,1647422,941B,"Bourke Street between Wurundjeri Way and Harbour Esplanade, approximately 6m West of The Nixon Hotel, 749-753 Bourke Street, DOCKLANDS VIC 3008",-37.818706,144.9481081,"-37.818706, 144.9481081"
MPM1647426,Yes,Yes,1647426,910B,"Harbour Esplanade between Bourke Street and La Trobe Street, approximately 39m NW of Friends Of Fire, Part Ground 140 Harbour Esplanade, DOCKLANDS VIC 3008",-37.8164183,144.9457007,"-37.8164183, 144.9457007"
MPM1647427,Yes,Yes,1647427,545A,"Queen Street between Lonsdale Street and Little Lonsdale Street, approximately 28m SW of Unit 2, Ground 262 Queen Street, MELBOURNE VIC 3000",-37.8125219,144.9594156,"-37.8125219, 144.9594156"
MPM1647428,Yes,Yes,1647428,545B,"Queen Street between Lonsdale Street and Little Lonsdale Street, approximately 13m NW of 266-270 Queen Street, MELBOURNE VIC 3000",-37.8121969,144.9595635,"-37.8121969, 144.9595635"
MPM1647429,Yes,Yes,1647429,651A,"Lonsdale Street between Exhibition Street and Russell Street, approximately 5m South of Southern Cross University, Level 1-2 & 6, 108 Lonsdale Street, MELBOURNE VIC 3000",-37.810181,144.9690499,"-37.810181, 144.9690499"
MPM1647434,Yes,Yes,1647434,683B,"Franklin Street between Elizabeth Street and Queen Street, approximately 5m SE of Cheaper Car Rentals, Reception Ground 118 Franklin Street, MELBOURNE VIC 3000",-37.8084306,144.9591248,"-37.8084306, 144.9591248"
MPM1647435,Yes,Yes,1647435,683C,"Franklin Street between Elizabeth Street and Queen Street, approximately 28m SE of 142-146 Franklin Street, MELBOURNE VIC 3000",-37.8088446,144.9584748,"-37.8088446, 144.9584748"
MPM1647436,Yes,Yes,1647436,517B,"Russell Street between Flinders Lane and Collins Street, approximately 27m NW of Grand Hyatt Melbourne, 121-131 Collins Street, MELBOURNE VIC 3000",-37.815285,144.9693867,"-37.815285, 144.9693867"
MPM1647443,Yes,Yes,1647443,576A,"King Street between Batman Street and Dudley Street, approximately 14m SE of 439 King Street, WEST MELBOURNE VIC 3003",-37.809916,144.9525746,"-37.809916, 144.9525746"
MPM1647449,Yes,Yes,1647449,720A,"Southgate Avenue between City Road and Riverside Avenue, approximately 23m SE of Quay West Suites Melbourne, Pt Gnd & Pt Lvls 5-15, 26 Southgate Avenue, SOUTHBANK VIC 3006",-37.8204741,144.9676015,"-37.8204741, 144.9676015"
MPM1647452,Yes,Yes,1647452,695B,"Victoria Street between Cardigan Street and Swanston Street, approximately 29m South of Royal Melbourne Institute Of Technology, 110-120 Victoria Street, CARLTON VIC 3053",-37.8068522,144.9637021,"-37.8068522, 144.9637021"
MPM1647454,Yes,Yes,1647454,635C,"Bourke Street between Exhibition Street and Russell Street, approximately 5m South of Paddy Pallin, Ground & Level 1, 152-158 Bourke Street, MELBOURNE VIC 3000",-37.8125437,144.9686641,"-37.8125437, 144.9686641"
MPM1647457,Yes,Yes,1647457,631C,"Little Collins Street between Queen Street and William Street, approximately 11m SE of Roti Bar, 416-418 Little Collins Street, MELBOURNE VIC 3000",-37.816111,144.9607274,"-37.816111, 144.9607274"
MPM1647459,Yes,Yes,1647459,518A,"Russell Street between Collins Street and Little Collins Street, approximately 8m North of Scots Church Trustees, Scots Church, 77-97 Russell Street, MELBOURNE VIC 3000",-37.8143917,144.9686829,"-37.8143917, 144.9686829"
MPM1647461,Yes,Yes,1647461,616B,"Flinders Lane between King Street and Spencer Street, approximately 3m North of Ground 539-545 Flinders Lane, MELBOURNE VIC 3000",-37.8197659,144.9560463,"-37.8197659, 144.9560463"
MPM1647462,Yes,Yes,1647462,524A,"Russell Street between La Trobe Street and MacKenzie Street, approximately 31m NE of RMIT University (City Campus), Building 19, RMIT University, 345-355 Russell Street, MELBOURNE VIC 3000",-37.8080599,144.9660729,"-37.8080599, 144.9660729"
MPM1647463,Yes,Yes,1647463,572A,"King Street between Lonsdale Street and Little Lonsdale Street, approximately 3m SW of Sbriga Espresso, Lot 2, Ground 270 King Street, MELBOURNE VIC 3000",-37.8137635,144.9546681,"-37.8137635, 144.9546681"
MPM1647468,Yes,Yes,1647468,515A,"Exhibition Street between La Trobe Street and Victoria Street, approximately 13m South of Exhibition Street Reserve, Exhibition Street, MELBOURNE VIC 3000",-37.8076202,144.9685699,"-37.8076202, 144.9685699"
MPM1647469,Yes,Yes,1647469,635A,"Bourke Street between Exhibition Street and Russell Street, approximately 10m SW of Seoulo, Shop 1, LwrGround 108 Bourke Street, MELBOURNE VIC 3000",-37.8121864,144.9698638,"-37.8121864, 144.9698638"
MPM1647478,Yes,Yes,1647478,566A,"King Street between Flinders Street and Flinders Lane, approximately 5m West of Gnd & Flr1 20 King Street, MELBOURNE VIC 3000",-37.8197623,144.9574215,"-37.8197623, 144.9574215"
MPM1647484,Yes,Yes,1647484,693B,"Victoria Street between Drummond Street and Lygon Street, approximately 3m North of Victorian Opera Company Ltd, Horticultural Hall, 31-33 Victoria Street, MELBOURNE VIC 3000",-37.8071638,144.966561,"-37.8071638, 144.966561"
MPM1647485,Yes,Yes,1647485,691A,"Victoria Street between La Trobe Street and Rathdowne Street, approximately 39m West of 2 La Trobe Street, MELBOURNE VIC 3000",-37.8074954,144.96965,"-37.8074954, 144.96965"
MPM1647486,Yes,Yes,1647486,541A,"Queen Street between Collins Street and Little Collins Street, approximately 4m NE of IGA Express, Ground 85 Queen Street, MELBOURNE VIC 3000",-37.8164797,144.961233,"-37.8164797, 144.961233"
MPM1647488,Yes,Yes,1647488,541B,"Queen Street between Collins Street and Little Collins Street, approximately 28m NE of Part Ground 95 Queen Street, MELBOURNE VIC 3000",-37.8162183,144.9614092,"-37.8162183, 144.9614092"
MPM1647493,Yes,Yes,1647493,665A,"Little Lonsdale Street between King Street and Spencer Street, approximately 4m North of West Side Wine, 645 Little Lonsdale Street, MELBOURNE VIC 3000",-37.8139995,144.9526287,"-37.8139995, 144.9526287"
MPM1647496,Yes,Yes,1647496,623A,"Collins Street between William Street and King Street, approximately 18m East of Westpac, Shop 1, Ground 520 Collins Street, MELBOURNE VIC 3000",-37.8180165,144.9574929,"-37.8180165, 144.9574929"
MPM1647499,Yes,Yes,1647499,622A,"Collins Street between Queen Street and Market Street, approximately 5m NW of Part Ground & Part Mezzazine, 405-407 Collins Street, MELBOURNE VIC 3000",-37.8172094,144.9609868,"-37.8172094, 144.9609868"
MPM1647500,Yes,Yes,1647500,621A,"Collins Street between Elizabeth Street and Queen Street, approximately 13m SW of Earl Canteen 360 Collins, Shop 4, 360 Collins Street, MELBOURNE VIC 3000",-37.8165956,144.9624141,"-37.8165956, 144.9624141"
MPM1647514,Yes,Yes,1647514,536B,"Elizabeth Street between A'Beckett Street and Franklin Street, approximately 8m SE of Unicorn Cosmetics, Part 441-445 Elizabeth Street, MELBOURNE VIC 3000",-37.8086949,144.9604865,"-37.8086949, 144.9604865"
MPM1647520,Yes,Yes,1647520,613A,"Powercor Building, approximately 1m East of Part Ground 40 Market Street, MELBOURNE VIC 3000",-37.8181849,144.9612285,"-37.8181849, 144.9612285"
MPM1647521,Yes,Yes,1647521,613B,"Flinders Lane between Queen Street and Market Street, approximately 5m East of Telstra Corporation Limited, 376-382 Flinders Lane, MELBOURNE VIC 3000",-37.8180221,144.9615163,"-37.8180221, 144.9615163"
MPM1647522,Yes,Yes,1647522,633A,"Little Collins Street between King Street and Spencer Street, approximately 8m SW of Grand City Tour, Unit G3, 616 Little Collins Street, MELBOURNE VIC 3000",-37.8178186,144.9544075,"-37.8178186, 144.9544075"
MPM1647523,Yes,Yes,1647523,633B,"Little Collins Street between King Street and Spencer Street, approximately 13m NE of Shop 2, 625 Little Collins Street, MELBOURNE VIC 3000",-37.8179316,144.9544349,"-37.8179316, 144.9544349"
MPM1647525,Yes,Yes,1647525,633C,"Little Collins Street between King Street and Spencer Street, approximately 9m NE of The Bottom End, 577-583 Little Collins Street, MELBOURNE VIC 3000",-37.8175856,144.9556207,"-37.8175856, 144.9556207"
MPM1647527,Yes,Yes,1647527,692B,"Victoria Street between Rathdowne Street and Drummond Street, approximately 19m East of ZAP Fitness 24/7, Ground 28 Victoria Street, CARLTON VIC 3053",-37.8071094,144.9681163,"-37.8071094, 144.9681163"
MPM1647532,Yes,Yes,1647532,948A,"Bourke Street between Enterprize Way and Cumberland Street, approximately 5m North of United Workers Union, Part Ground & Level 1-3, 833 Bourke Street, DOCKLANDS VIC 3008",-37.8201028,144.9432506,"-37.8201028, 144.9432506"
MPM1647533,Yes,Yes,1647533,549A,"Queen Street between Franklin Street and Therry Street, approximately 10m North of Upmarket Pets, Ground 440 Queen Street, MELBOURNE VIC 3000",-37.8082648,144.9580571,"-37.8082648, 144.9580571"
MPM1647534,Yes,Yes,1647534,552A,"Market Street between Flinders Lane and Collins Street, approximately 15m South of Astros Cafe & Deli, Unit 1, Ground 50 Market Street, MELBOURNE VIC 3000",-37.8181443,144.960677,"-37.8181443, 144.960677"
MPM1647535,Yes,Yes,1647535,510A,"Exhibition Street between Little Collins Street and Bourke Street, approximately 7m NW of Black Velvet Espresso, Part Ground 136 Exhibition Street, MELBOURNE VIC 3000",-37.8124864,144.9709053,"-37.8124864, 144.9709053"
MPM1647537,Yes,Yes,1647537,790A,"Coventry Street between Dodds Street and Sturt Street, approximately 36m West of Alffie, Part Ground 99 Coventry Street, SOUTHBANK VIC 3006",-37.8300709,144.9660282,"-37.8300709, 144.9660282"
MPM1647538,Yes,Yes,1647538,663A,"Little Lonsdale Street between Queen Street and William Street, approximately 38m East of Hellenic Museum Victoria, Rear 280 William Street, MELBOURNE VIC 3000",-37.812558,144.9574148,"-37.812558, 144.9574148"
MPM1647539,Yes,Yes,1647539,663B,"Little Lonsdale Street between Queen Street and William Street, approximately 21m East of Victoria University, Bmt, Gnd, Mezz, Lvl 1-9 Pt Lvl 10 & Lvl 11-29, 364-378 Little Lonsdale Street, MELBOURNE VIC 3000",-37.8122207,144.9588012,"-37.8122207, 144.9588012"
MPM1647540,Yes,Yes,1647540,626A,"Little Collins Street between Spring Street and Exhibition Street, approximately 17m SW of Parkade, Carpark 34-60 Little Collins Street, MELBOURNE VIC 3000",-37.8128244,144.9719254,"-37.8128244, 144.9719254"
MPM1647542,Yes,Yes,1647542,565A,"Church Street between Bourke Street and Little Collins Street, approximately 19m North of Bela Baguette, Shop 2, Ground 530 Little Collins Street, MELBOURNE VIC 3000",-37.8166454,144.9572928,"-37.8166454, 144.9572928"
MPM1647547,Yes,Yes,1647547,936A,"Point Park, approximately 58m East of 12-14 Point Park Crescent, DOCKLANDS VIC 3008",-37.823207,144.9414546,"-37.823207, 144.9414546"
MPM1647550,Yes,Yes,1647550,544B,"Queen Street between Little Bourke Street and Lonsdale Street, approximately 4m West of Wynns Locksmith, Part Ground 224 Queen Street, MELBOURNE VIC 3000",-37.8133426,144.960089,"-37.8133426, 144.960089"
MPM1647553,Yes,Yes,1647553,680B,"A'Beckett Street between Wills Street and Queen Street, approximately 20m North of Y Suites On A'Beckett, Part Ground & Level 1-2, 183-189 A'Beckett Street, MELBOURNE VIC 3000",-37.8100139,144.9579274,"-37.8100139, 144.9579274"
MPM1647556,Yes,Yes,1647556,540B,"Queen Street between Flinders Lane and Collins Street, approximately 27m North of Roy Morgan, Ground 53-57 Queen Street, MELBOURNE VIC 3000",-37.8172804,144.9616001,"-37.8172804, 144.9616001"
MPM1647559,Yes,Yes,1647559,911A,"Navigation Drive between Collins Street and Harbour Esplanade, approximately 32m NW of 7 Navigation Drive, DOCKLANDS VIC 3008",-37.8222295,144.9468041,"-37.8222295, 144.9468041"
MPM1647560,Yes,Yes,1647560,691B,"Victoria Street between La Trobe Street and Rathdowne Street, approximately 48m NW of 2 La Trobe Street, MELBOURNE VIC 3000",-37.8072941,144.9697152,"-37.8072941, 144.9697152"
MPM1647561,Yes,Yes,1647561,553B,"Wills Street between La Trobe Street and A'Beckett Street, approximately 23m NE of Ear & Hearing Australia Pty Ltd, Part Ground 414 La Trobe Street, MELBOURNE VIC 3000",-37.8112063,144.9573522,"-37.8112063, 144.9573522"
MPM1647563,Yes,Yes,1647563,574A,"King Street between La Trobe Street and Jeffcott Street, approximately 7m North of Pt Gnd , Lvl 1 & Pt Lvl 2, 363 King Street, WEST MELBOURNE VIC 3003",-37.8117547,144.9534439,"-37.8117547, 144.9534439"
MPM1647566,Yes,Yes,1647566,689B,"Dudley Street between King Street and Spencer Street, approximately 10m East of 132 Dudley Street, WEST MELBOURNE VIC 3003",-37.8095974,144.9511354,"-37.8095974, 144.9511354"
MPM1647568,Yes,Yes,1647568,625A,"Francis Street between King Street and Spencer Street, approximately 20m SE of Nationwide Parking, Basement 106-120 Spencer Street, MELBOURNE VIC 3000",-37.8184661,144.95413,"-37.8184661, 144.95413"
MPM1647569,Yes,Yes,1647569,706C,"City Road between Southgate Avenue and Sturt Street, approximately 29m NE of JB Hi-Fi, Part Podium, Gnd - Level 1-5, Pt Lvl 6,8 & Lvl 19, 60 City Road, SOUTHBANK VIC 3006",-37.8214249,144.9663664,"-37.8214249, 144.9663664"
MPM1647570,Yes,Yes,1647570,588A,"Spencer Street between Batman Street and Dudley Street, approximately 4m SW of Phuoc Thanh Bakery, 424 Spencer Street, WEST MELBOURNE VIC 3003",-37.8104539,144.9503187,"-37.8104539, 144.9503187"
MPM1647571,Yes,Yes,1647571,546A,"Queen Street between Little Lonsdale Street and La Trobe Street, approximately 16m NW of Victoria University, 296-308 Queen Street, MELBOURNE VIC 3000",-37.8115967,144.9592941,"-37.8115967, 144.9592941"
MPM1647574,Yes,Yes,1647574,542B,"Queen Street between Little Collins Street and Bourke Street, approximately 4m NE of Ezymart Queen Street, Ground & Part Level 2, 123 Queen Street, MELBOURNE VIC 3000",-37.8156781,144.9608626,"-37.8156781, 144.9608626"
MPM1647577,Yes,Yes,1647577,658C,"Little Lonsdale Street between Spring Street and Exhibition Street, approximately 11m East of Flinch Coffee & Play, 18 Little Lonsdale Street, MELBOURNE VIC 3000",-37.8085558,144.9710922,"-37.8085558, 144.9710922"
MPM1647579,Yes,Yes,1647579,712B,"City Road between Clarke Street and Clarendon Street, approximately 8m East of Gnd & Flr1 300 City Road, SOUTHBANK VIC 3006",-37.8269856,144.9587222,"-37.8269856, 144.9587222"
MPM1647581,Yes,Yes,1647581,553A,"Wills Street between La Trobe Street and A'Beckett Street, approximately 28m SE of Unilodge CBD, 17 Wills Street, MELBOURNE VIC 3000",-37.8110697,144.957484,"-37.8110697, 144.957484"
MPM1647582,Yes,Yes,1647582,778B,"Balston Street between City Road and Kavanagh Street, approximately 66m SE of Southbank Library at Boyd, Part Ground 207 City Road, SOUTHBANK VIC 3006",-37.8256865,144.9616626,"-37.8256865, 144.9616626"
MPM1647585,Yes,Yes,1647585,948C,"Bourke Street between Enterprize Way and Cumberland Street, approximately 14m SW of Wilson Parking, Part Ground, Level 1 & Part Level 2, 818 Bourke Street, DOCKLANDS VIC 3008",-37.8196264,144.9441582,"-37.8196264, 144.9441582"
MPM1647588,Yes,Yes,1647588,660B,"Little Lonsdale Street between Russell Street and Swanston Street, approximately 5m NW of Yimu Hair Salon, 185-189 Little Lonsdale Street, MELBOURNE VIC 3000",-37.8100125,144.9663125,"-37.8100125, 144.9663125"
MPM1647592,Yes,Yes,1647592,945A,"Bourke Street between Harbour Esplanade and Enterprize Way, approximately 11m North of Toss'D, 7 Buckley Walk, DOCKLANDS VIC 3008",-37.8196338,144.9448746,"-37.8196338, 144.9448746"
MPM1647593,Yes,Yes,1647593,639A,"Bourke Street between Queen Street and William Street, approximately 18m West of RACV City Club, 501 Bourke Street, MELBOURNE VIC 3000",-37.8155897,144.9589039,"-37.8155897, 144.9589039"
MPM1647595,Yes,Yes,1647595,654A,"Lonsdale Street between Elizabeth Street and Queen Street, approximately 5m South of Cattleya Beauty & Spa, Ground 410 Lonsdale Street, MELBOURNE VIC 3000",-37.8127453,144.9602757,"-37.8127453, 144.9602757"
MPM1647599,Yes,Yes,1647599,516B,"Russell Street between Flinders Street and Flinders Lane, approximately 5m South of CVA Property Consultants Pty Ltd, 18 Russell Street, MELBOURNE VIC 3000",-37.816269,144.9698404,"-37.816269, 144.9698404"
MPM1647602,Yes,Yes,1647602,550B,"Queen Victoria Market, approximately 38m NE of Queen Victoria Market Trader Hub, Stall 1, Shed F, Queen Victoria Market, 66 Peel Street, MELBOURNE VIC 3000",-37.8070713,144.9580754,"-37.8070713, 144.9580754"
MPM1647604,Yes,Yes,1647604,787B,"Miles Street between Sturt Street and Moore Street, approximately 18m NE of Victorian College Of The Arts Secondary School, 55-65 Miles Street, SOUTHBANK VIC 3006",-37.8281356,144.9652782,"-37.8281356, 144.9652782"
MPM1647606,Yes,Yes,1647606,787A,"Miles Street between Sturt Street and Moore Street, approximately 5m NW of Victorian College Of The Arts Secondary School, 55-65 Miles Street, SOUTHBANK VIC 3006",-37.82825,144.9651416,"-37.82825, 144.9651416"
MPM1647607,Yes,Yes,1647607,786B,"Miles Street between Dodds Street and Sturt Street, approximately 37m NW of Pil Australia Pty Ltd, Part 29 Miles Street, SOUTHBANK VIC 3006",-37.8284028,144.9666613,"-37.8284028, 144.9666613"
MPM1647613,Yes,Yes,1647613,782B,"Grant Street between Wells Street and Dodds Street, approximately 30m North of Grant Street Reserve, 25-45 Grant Street, SOUTHBANK VIC 3006",-37.8254912,144.9687033,"-37.8254912, 144.9687033"
MPM1647616,Yes,Yes,1647616,939A,"Fishplate Lane between Batmans Hill Drive and Village Street, approximately 41m South of West Coast Eagles Football Club, 68 Village Street, DOCKLANDS VIC 3008",-37.8195503,144.9493748,"-37.8195503, 144.9493748"
MPM1647617,Yes,Yes,1647617,645B,"Emporium Melbourne, approximately 16m East of Unit 503, Level 5, 318 Little Bourke Street, MELBOURNE VIC 3000",-37.8130974,144.9634301,"-37.8130974, 144.9634301"
MPM1647619,Yes,Yes,1647619,659B,"Little Lonsdale Street between Exhibition Street and Russell Street, approximately 4m West of Brady Hotel Jones Lane, 111 Little Lonsdale Street, MELBOURNE VIC 3000",-37.8093585,144.9685235,"-37.8093585, 144.9685235"
MPM1647620,Yes,Yes,1647620,780A,"Moray Street between Hancock Street and West Gate Freeway, approximately 15m South of Nationwide Parking, 31-49 Moray Street, SOUTHBANK VIC 3006",-37.8278183,144.9611118,"-37.8278183, 144.9611118"
MPM1647621,Yes,Yes,1647621,762C,"Dodds Street between Miles Street and Grant Street, approximately 53m South of Southern Link Lease, Southern Link Road, SOUTHBANK VIC 3006",-37.8268033,144.9677876,"-37.8268033, 144.9677876"
MPM1647624,Yes,Yes,1647624,754C,"Kavanagh Street between Power Street and Balston Street, approximately 12m SW of Kennedy Park, 99-107 Kavanagh Street, SOUTHBANK VIC 3006",-37.8253584,144.9630082,"-37.8253584, 144.9630082"
MPM1647626,Yes,Yes,1647626,763A,"Dodds Street between Miles Street and Coventry Street, approximately 70m South of AAW Group Holdings Pty Ltd, 102 Dodds Street, SOUTHBANK VIC 3006",-37.8292952,144.9668688,"-37.8292952, 144.9668688"
MPM1647629,Yes,Yes,1647629,764B,"Dodds Street between Coventry Street and Dorcas Street, approximately 9m NW of Human Beans, 147 Dodds Street, SOUTHBANK VIC 3006",-37.8306103,144.9672465,"-37.8306103, 144.9672465"
MPM1647636,Yes,Yes,1647636,329B,"Wreckyn Street between Flemington Road and Courtney Street, approximately 17m NE of The Royal Melbourne Hospital, 10-14 Wreckyn Street, NORTH MELBOURNE VIC 3051",-37.8007912,144.9537958,"-37.8007912, 144.9537958"
MPM1647637,Yes,Yes,1647637,329A,"Wreckyn Street between Flemington Road and Courtney Street, approximately 3m SE of 3-9 Wreckyn Street, NORTH MELBOURNE VIC 3051",-37.8008775,144.9532826,"-37.8008775, 144.9532826"
MPM1647643,Yes,Yes,1647643,178B,"Bouverie Street between Lincoln Square North and Grattan Street, approximately 6m South of Faculty Of Business & Economics, 225-235 Bouverie Street, CARLTON VIC 3053",-37.8011234,144.9622147,"-37.8011234, 144.9622147"
MPM1647649,Yes,Yes,1647649,215C,"Errol Street between Victoria Street and Queensberry Street, approximately 5m East of North Melbourne Lotto, Ground 25 Errol Street, NORTH MELBOURNE VIC 3051",-37.8044122,144.9492639,"-37.8044122, 144.9492639"
MPM1647650,Yes,Yes,1647650,377D,"Adderley Street between Jeffcott Street and Batman Street, approximately 25m SW of Judy Lazarus Transition Centre, 44-58 Adderley Street, WEST MELBOURNE VIC 3003",-37.8124134,144.9489455,"-37.8124134, 144.9489455"
MPM1647651,Yes,Yes,1647651,128D,"Batman Street between Adderley Street and Spencer Street, approximately 4m East of Australian Red Cross Society, Basement, Part Ground & Level 1-2, 100-154 Batman Street, WEST MELBOURNE VIC 3003",-37.8112975,144.9491143,"-37.8112975, 144.9491143"
MPM1647652,Yes,Yes,1647652,377E,"Adderley Street between La Trobe Street and Jeffcott Street, approximately 71m SE of Judy Lazarus Transition Centre, 44-58 Adderley Street, WEST MELBOURNE VIC 3003",-37.8129011,144.949501,"-37.8129011, 144.949501"
MPM1647663,Yes,Yes,1647663,330B,"Blackwood Street between Flemington Road and Courtney Street, approximately 5m North of Maben Group Pty Ltd, 22-24 Blackwood Street, NORTH MELBOURNE VIC 3051",-37.8013713,144.9551839,"-37.8013713, 144.9551839"
MPM1647668,Yes,Yes,1647668,134A,"Eades Street between Victoria Parade and Albert Street, approximately 47m South of Catholic Theological College, Thomas Carr Centre, 256-278 Victoria Parade, EAST MELBOURNE VIC 3002",-37.8094875,144.9809409,"-37.8094875, 144.9809409"
MPM1647671,Yes,Yes,1647671,208B,"Leveson Street between Victoria Street and Queensberry Street, approximately 3m NW of 30 Leveson Street, NORTH MELBOURNE VIC 3051",-37.8040394,144.9510943,"-37.8040394, 144.9510943"
MPM1647672,Yes,Yes,1647672,208C,"Leveson Street between Victoria Street and Queensberry Street, approximately 4m NE of Ut Consulting Pty Ltd, Ground 11-17 Leveson Street, NORTH MELBOURNE VIC 3051",-37.8046028,144.9507191,"-37.8046028, 144.9507191"
MPM1647674,Yes,Yes,1647674,829D,Linlithgow Avenue between St Kilda Road and Government House Drive,-37.8234545,144.9710981,"-37.8234545, 144.9710981"
MPM1647675,Yes,Yes,1647675,769B,"St Kilda Road between Southbank Boulevard and Grant Street, approximately 59m East of Faculty Of The VCA & Music, Building 862, 204-234 St Kilda Road, SOUTHBANK VIC 3006",-37.8242125,144.9708229,"-37.8242125, 144.9708229"
MPM1647678,Yes,Yes,1647678,328C,"Chetwynd Street between Victoria Street and Queensberry Street, approximately 5m NE of 55-57 Chetwynd Street, NORTH MELBOURNE VIC 3051",-37.8047966,144.952187,"-37.8047966, 144.952187"
MPM1647684,Yes,Yes,1647684,345A,"Flemington Road between Villiers Street and Harcourt Street, approximately 13m East of Avist Cafe, 101 Flemington Road, NORTH MELBOURNE VIC 3051",-37.7983242,144.9529996,"-37.7983242, 144.9529996"
MPM1647686,Yes,Yes,1647686,230B,"Dudley Street between Adderley Street and Spencer Street, approximately 28m West of 97-99 Dudley Street, WEST MELBOURNE VIC 3003",-37.8105651,144.9491652,"-37.8105651, 144.9491652"
MPM1647688,Yes,Yes,1647688,302B,"Queensberry Street between Capel Street and Howard Street, approximately 32m NE of St Joseph's Flexible Learning Centre, St Josephs College, 367-395 Queensberry Street, NORTH MELBOURNE VIC 3051",-37.8035476,144.9550493,"-37.8035476, 144.9550493"
MPM1647689,Yes,Yes,1647689,351A,"Victoria Street between Capel Street and Howard Street, approximately 3m South of Nahm Tao Thai Kitchen, 348 Victoria Street, NORTH MELBOURNE VIC 3051",-37.8056099,144.9545219,"-37.8056099, 144.9545219"
MPM1647690,Yes,Yes,1647690,351B,"Victoria Street between Capel Street and Howard Street, approximately 5m NE of Ping's Full Body Care, 205 Victoria Street, WEST MELBOURNE VIC 3003",-37.8058418,144.9546546,"-37.8058418, 144.9546546"
MPM1647692,Yes,Yes,1647692,326B,"Ievers Street between Royal Parade and The Avenue, approximately 27m South of 14 Ievers Street, PARKVILLE VIC 3052",-37.7817892,144.9589736,"-37.7817892, 144.9589736"
MPM1647693,Yes,Yes,1647693,346A,"Chetwynd Street between Stanley Street and Victoria Street, approximately 27m East of 25 Chetwynd Street, WEST MELBOURNE VIC 3003",-37.8058471,144.9522765,"-37.8058471, 144.9522765"
MPM1647696,Yes,Yes,1647696,375A,"Flemington Road between Murphy Street and Harker Street, approximately 8m SW of Ievers Reserve, 42 Flemington Road, PARKVILLE VIC 3052",-37.796995,144.9520629,"-37.796995, 144.9520629"
MPM1647697,Yes,Yes,1647697,376A,"Flemington Road between Gatehouse Street and Abbotsford Street, approximately 10m West of The Larwill Studio, 48 Flemington Road, PARKVILLE VIC 3052",-37.7954574,144.9501428,"-37.7954574, 144.9501428"
MPM1647698,Yes,Yes,1647698,261C,"Elizabeth Street between Victoria Street and Queensberry Street, approximately 6m SW of 582-590 Elizabeth Street, MELBOURNE VIC 3000",-37.8047109,144.9590826,"-37.8047109, 144.9590826"
MPM1647699,Yes,Yes,1647699,149A,"Flemington Road between Racecourse Road and Melrose Street, approximately 54m NE of Tomkin Australia Pty Ltd, Gnd & Flr1 371-377 Flemington Road, NORTH MELBOURNE VIC 3051",-37.7898288,144.9430935,"-37.7898288, 144.9430935"
MPM1647703,Yes,Yes,1647703,261B,"Elizabeth Street between Victoria Street and Queensberry Street, approximately 11m North of Gordon Legal, Part Ground 535 Elizabeth Street, MELBOURNE VIC 3000",-37.8054957,144.9588354,"-37.8054957, 144.9588354"
MPM1647704,Yes,Yes,1647704,336E,"Stanley Street between Adderley Street and Spencer Street, approximately 4m East of 150-152 Stanley Street, WEST MELBOURNE VIC 3003",-37.8089987,144.9475986,"-37.8089987, 144.9475986"
MPM1647708,Yes,Yes,1647708,335E,"Stanley Street between King Street and Spencer Street, approximately 3m North of Gladstone Motor & Panel, 45 Stanley Street, WEST MELBOURNE VIC 3003",-37.8079069,144.9498589,"-37.8079069, 144.9498589"
MPM1647712,Yes,Yes,1647712,379C,"Intersection of King Street and Stanley Street, approximately 28m NE of Ground 541 King Street, WEST MELBOURNE VIC 3003",-37.8070498,144.9508036,"-37.8070498, 144.9508036"
MPM1647714,Yes,Yes,1647714,343A,"Rosslyn Street between Howard Street and King Street, approximately 7m SW of 68 Rosslyn Street, WEST MELBOURNE VIC 3003",-37.8078015,144.9521511,"-37.8078015, 144.9521511"
MPM1647715,Yes,Yes,1647715,343B,"Rosslyn Street between Howard Street and King Street, approximately 27m NE of 49-51 Rosslyn Street, WEST MELBOURNE VIC 3003",-37.8076149,144.953067,"-37.8076149, 144.953067"
MPM1647717,Yes,Yes,1647717,327B,"Capel Street between Victoria Street and Queensberry Street, approximately 4m West of 138 Capel Street, NORTH MELBOURNE VIC 3051",-37.8048076,144.9554725,"-37.8048076, 144.9554725"
MPM1647721,Yes,Yes,1647721,364A,"Bouverie Street between Pelham Street and Lincoln Square North, approximately 28m East of Australian College Of Sport And Fitness, Level 1, 183-189 Bouverie Street, CARLTON VIC 3053",-37.8020907,144.9623273,"-37.8020907, 144.9623273"
MPM1647724,Yes,Yes,1647724,300B,"Intersection of Gatehouse Street and Story Street, approximately 22m North of Parkville House Inc, 34 Gatehouse Street, PARKVILLE VIC 3052",-37.7956044,144.9523364,"-37.7956044, 144.9523364"
MPM1647726,Yes,Yes,1647726,168B,"Berkeley Street between Pelham Street and Grattan Street, approximately 21m SW of School Of Health Services, Building 260 (MSHS), 182-200 Berkeley Street, CARLTON VIC 3053",-37.800883,144.9585545,"-37.800883, 144.9585545"
MPM1647729,Yes,Yes,1647729,340A,"Queensberry Street between Leveson Street and Errol Street, approximately 3m North of Domov House Accommodation, 509-511 Queensberry Street, NORTH MELBOURNE VIC 3051",-37.8032529,144.9504349,"-37.8032529, 144.9504349"
MPM1647733,Yes,Yes,1647733,339A,"Rosslyn Street between King Street and Spencer Street, approximately 21m SW of 124 Rosslyn Street, WEST MELBOURNE VIC 3003",-37.8088045,144.9500841,"-37.8088045, 144.9500841"
MPM1647734,Yes,Yes,1647734,339B,"Rosslyn Street between King Street and Spencer Street, approximately 7m West of Melbourne Budokai (The Kenshikan Dojo) Inc, 93-99 Rosslyn Street, WEST MELBOURNE VIC 3003",-37.8086034,144.9510409,"-37.8086034, 144.9510409"
MPM1647735,Yes,Yes,1647735,262E,"Swanston Street between Queensberry Street and Lincoln Square South, approximately 18m North of Press & Grocers Co, 625-635 Swanston Street, CARLTON VIC 3053",-37.8034732,144.9632961,"-37.8034732, 144.9632961"
MPM1647742,Yes,Yes,1647742,159D,"The Avenue between MacArthur Road and Gatehouse Street, approximately 17m SW of Townhouse 5, 4B The Avenue, PARKVILLE VIC 3052",-37.790611,144.9574589,"-37.790611, 144.9574589"
MPM1647743,Yes,Yes,1647743,159B,"The Avenue between MacArthur Road and Gatehouse Street, approximately 39m SW of Mar Thoma Syrian Church Australia Inc, Mar Thoma Syrian Church Australia, 149 Royal Parade, PARKVILLE VIC 3052",-37.7915463,144.9578648,"-37.7915463, 144.9578648"
MPM1647745,Yes,Yes,1647745,308D,"Leicester Street between Victoria Street and Berkeley Street, approximately 7m North of Journal Student Living Pty Ltd, 18 Leicester Street, CARLTON VIC 3053",-37.8057276,144.9601781,"-37.8057276, 144.9601781"
MPM1647750,Yes,Yes,1647750,141F,"The Avenue between Ievers Street and Park Street, approximately 31m South of Royal Park Lodge, 369 The Avenue, PARKVILLE VIC 3052",-37.7785922,144.959452,"-37.7785922, 144.959452"
MPM1647754,Yes,Yes,1647754,178A,"Bouverie Street between Lincoln Square North and Grattan Street, approximately 3m SW of The University Of Melbourne - Digitisation Service, 158-164 Bouverie Street, CARLTON VIC 3053",-37.8011041,144.962497,"-37.8011041, 144.962497"
MPM1647755,Yes,Yes,1647755,144B,"Railway Place between Hawke Street and Abbotsford Street, approximately 32m NW of Railway Viewing Platform, Railway Place, WEST MELBOURNE VIC 3003",-37.8085429,144.9435228,"-37.8085429, 144.9435228"
MPM1647757,Yes,Yes,1647757,144G,"Intersection of Railway Place and Roden Street, approximately 32m West of Endorsed Carriers & Storers, 237-245 Roden Street, WEST MELBOURNE VIC 3003",-37.8099881,144.9446726,"-37.8099881, 144.9446726"
MPM1647760,Yes,Yes,1647760,855B,"Wellington Parade between Clarendon Street and Jolimont Road, approximately 51m East of Fitzroy Gardens Visitor Centre, Visitor's Centre, 264 Wellington Parade, EAST MELBOURNE VIC 3002",-37.8157641,144.980574,"-37.8157641, 144.980574"
MPM1647764,Yes,Yes,1647764,775B,St Kilda Road between Anzac Avenue and Coventry Street,-37.828148,144.9716617,"-37.828148, 144.9716617"
MPM1647767,Yes,Yes,1647767,858C,"Lansdowne Street between St Andrews Place and Cathedral Place, approximately 42m SE of St Vincent's Hospital on the Park, 11 Cathedral Place, EAST MELBOURNE VIC 3002",-37.8113842,144.977915,"-37.8113842, 144.977915"
MPM1647769,Yes,Yes,1647769,825C,"Kings Domain South, approximately 94m East of Shrine of Remembrance Reserve, 1 Anzac Avenue, MELBOURNE VIC 3004",-37.8275388,144.9729183,"-37.8275388, 144.9729183"
MPM1647770,Yes,Yes,1647770,224A,"Orr Street between Victoria Street and Earl Street, approximately 12m NW of Katrina's Designs, 76-78 Victoria Street, CARLTON VIC 3053",-37.8066743,144.9652161,"-37.8066743, 144.9652161"
MPM1647773,Yes,Yes,1647773,117A,"Rosslyn Street between Railway Place and Adderley Street, approximately 12m SW of Big Door Studios, 280-286 Rosslyn Street, WEST MELBOURNE VIC 3003",-37.8107859,144.9460187,"-37.8107859, 144.9460187"
MPM1647782,Yes,Yes,1647782,836D,"Alexandra Gardens, approximately 95m North of Residence Alexandra Gardens, Alexandra Avenue, MELBOURNE VIC 3004",-37.8200882,144.973062,"-37.8200882, 144.973062"
MPM1647787,Yes,Yes,1647787,130B,"Walsh Street between Milton Street and King Street, approximately 3m SW of Walsh Residences, 42-52 Walsh Street, WEST MELBOURNE VIC 3003",-37.8082654,144.9529761,"-37.8082654, 144.9529761"
MPM1647788,Yes,Yes,1647788,308A,"Leicester Street between Berkeley Street and Queensberry Street, approximately 8m NE of Ultima Max, 63 Leicester Street, CARLTON VIC 3053",-37.8045878,144.9601062,"-37.8045878, 144.9601062"
MPM1647795,Yes,Yes,1647795,321B,"Pelham Street between Bouverie Street and Leicester Street, approximately 3m NW of 161 Pelham Street, CARLTON VIC 3053",-37.8023438,144.9611889,"-37.8023438, 144.9611889"
MPM1783022,Yes,Yes,1783022,230A,"Dudley Street between Adderley Street and Spencer Street, approximately 6m SW of 208 Dudley Street, WEST MELBOURNE VIC 3003",-37.8104907,144.948727,"-37.8104907, 144.948727"
MPM1784229,Yes,Yes,1784229,117B,"Rosslyn Street between Railway Place and Adderley Street, approximately 27m SE of Ebike100 Pty Ltd, 260-262 Rosslyn Street, WEST MELBOURNE VIC 3003",-37.8106931,144.9467358,"-37.8106931, 144.9467358"
MPM1784234,Yes,Yes,1784234,304B,"Pelham Street between Cardigan Street and Swanston Street, approximately 25m East of Mid Square Coffee, 119 Pelham Street, CARLTON VIC 3053",-37.8027108,144.9645579,"-37.8027108, 144.9645579"
MPM1796851,Yes,Yes,1796851,964A,"Saint Mangos Lane North between Docklands Drive and Little Docklands Drive, approximately 38m SE of 8-24 Little Docklands Drive, DOCKLANDS VIC 3008",-37.812899,144.9405164,"-37.812899, 144.9405164"
MPM1796859,Yes,Yes,1796859,919A,"Seafarer Lane between Collins Street and Australian Wharf, approximately 24m NE of 58A Australian Wharf, DOCKLANDS VIC 3008",-37.8217397,144.9435975,"-37.8217397, 144.9435975"
MPM1798204,Yes,Yes,1798204,656B,"Lonsdale Street between William Street and King Street, approximately 15m East of EzyMart, Shop D, Ground 550 Lonsdale Street, MELBOURNE VIC 3000",-37.8139107,144.9562305,"-37.8139107, 144.9562305"
MPM1801477,Yes,Yes,1801477,969A,"Pearl River Road between Docklands Drive and Victoria Harbour, approximately 15m East of Quay Park, 9-13 Pearl River Road, DOCKLANDS VIC 3008",-37.8155475,144.9380027,"-37.8155475, 144.9380027"
MPM1801478,Yes,Yes,1801478,969B,"Pearl River Road between Docklands Drive and Victoria Harbour, approximately 12m SE of 1 Augusta Avenue, DOCKLANDS VIC 3008",-37.8158284,144.9379837,"-37.8158284, 144.9379837"
MPM1801479,Yes,Yes,1801479,970A,"Pearl River Road between Footscray Road and Docklands Drive, approximately 19m South of Harbour Town West Car Park, Carpark Ground 88 Pearl River Road, DOCKLANDS VIC 3008",-37.812779,144.9365621,"-37.812779, 144.9365621"
MPM1801480,Yes,Yes,1801480,970B,"Pearl River Road between Footscray Road and Docklands Drive, approximately 13m NW of 28-38 Pearl River Road, DOCKLANDS VIC 3008",-37.8142155,144.9374317,"-37.8142155, 144.9374317"
MPM1801481,Yes,Yes,1801481,906C,"Batmans Hill Drive between Bourke Street and Collins Street, approximately 30m SE of Pizza Hut Docklands, 57 Batmans Hill Drive, DOCKLANDS VIC 3008",-37.8200775,144.9486807,"-37.8200775, 144.9486807"
MPM1801484,Yes,Yes,1801484,980A,"Docklands Drive between Pearl River Road and Docklands Drive, approximately 47m SW of 473-505 Docklands Drive, DOCKLANDS VIC 3008",-37.815537,144.9361191,"-37.815537, 144.9361191"
MPM1801485,Yes,Yes,1801485,980B,"Docklands Drive between Pearl River Road and Docklands Drive, approximately 49m SW of Rear 476 Docklands Drive, DOCKLANDS VIC 3008",-37.8153272,144.9360556,"-37.8153272, 144.9360556"
MPM1801486,Yes,Yes,1801486,980C,"Docklands Drive between Pearl River Road and Docklands Drive, approximately 9m West of Unit 1, Ground 463 Docklands Drive, DOCKLANDS VIC 3008",-37.8151859,144.9370267,"-37.8151859, 144.9370267"
MPM1801488,Yes,Yes,1801488,935B,"Lorimer Street between West Gate Freeway and Hartley Street, approximately 46m SW of The Espressonist, Part 108 River Esplanade, DOCKLANDS VIC 3008",-37.8244491,144.9430423,"-37.8244491, 144.9430423"
MPM1801490,Yes,Yes,1801490,975B,"Docklands Drive between Harbour Esplanade and Saint Mangos Lane, approximately 6m NE of 361 Docklands Drive, DOCKLANDS VIC 3008",-37.8132079,144.9422157,"-37.8132079, 144.9422157"
MPM1802326,Yes,Yes,1802326,832C,"Alexandra Avenue between Swan Street Bridge and Anderson Street, approximately 98m East of Plant Craft Cottage, Royal Botanic Gardens Victoria, 1A Alexandra Avenue, MELBOURNE VIC 3004",-37.8273032,144.980493,"-37.8273032, 144.980493"
MPM1802328,Yes,Yes,1802328,834D,"Kings Domain, approximately 50m South of City of Melbourne, Alexandra Park, Alexandra Avenue, MELBOURNE VIC 3004",-37.8251552,144.977899,"-37.8251552, 144.977899"
MPM1802332,Yes,Yes,1802332,831C,Alexandra Park,-37.8279782,144.983103,"-37.8279782, 144.983103"
MPM1802333,Yes,Yes,1802333,475C,"Cemetery Road East between College Crescent and Lygon Street, approximately 72m NE of Unit 2, Ground 495 Cardigan Street, CARLTON VIC 3053",-37.7931718,144.9671961,"-37.7931718, 144.9671961"
MPM1802334,Yes,Yes,1802334,475D,"Cemetery Road East between College Crescent and Lygon Street, approximately 80m NW of VicRoads, 459 Lygon Street, CARLTON VIC 3053",-37.7929413,144.9672751,"-37.7929413, 144.9672751"
MPM1802338,Yes,Yes,1802338,834C,"Alexandra Avenue between Swan Street Bridge and Anderson Street, approximately 25m South of City of Melbourne, Alexandra Park, Alexandra Avenue, MELBOURNE VIC 3004",-37.8249372,144.977945,"-37.8249372, 144.977945"
MPM1802340,Yes,Yes,1802340,478B,Cemetery Road West between Royal Parade and College Crescent,-37.7908357,144.9596934,"-37.7908357, 144.9596934"
MPM1802342,Yes,Yes,1802342,892B,"Victoria Parade Reserve, approximately 19m North of 560 Victoria Parade, EAST MELBOURNE VIC 3002",-37.8098894,144.9900906,"-37.8098894, 144.9900906"
MPM1802345,Yes,Yes,1802345,479C,Princes Park,-37.7904561,144.9619043,"-37.7904561, 144.9619043"
MPM1802346,Yes,Yes,1802346,860C,"St Andrews Place between Lansdowne Street and MacArthur Street, approximately 19m SE of National Trust of Australia (Victoria), 2-8 Parliament Place, EAST MELBOURNE VIC 3002",-37.8118096,144.9756732,"-37.8118096, 144.9756732"
MPM1802347,Yes,Yes,1802347,897A,"Victoria Parade between Morrison Place and Lansdowne Street, approximately 6m NW of Ensor, 168-172 Victoria Parade, EAST MELBOURNE VIC 3002",-37.8086755,144.9775847,"-37.8086755, 144.9775847"
MPM1802349,Yes,Yes,1802349,860D,"St Andrews Place between Lansdowne Street and MacArthur Street, approximately 19m East of Victorian School Building Authority, Department of Education, 33 St Andrews Place, EAST MELBOURNE VIC 3002",-37.8120214,144.9761409,"-37.8120214, 144.9761409"
MPM1802350,Yes,Yes,1802350,832D,Alexandra Park,-37.8272532,144.980753,"-37.8272532, 144.980753"
MPM1802351,Yes,Yes,1802351,474B,Garton Street between Macpherson Street and Bowen Crescent,-37.7842509,144.9636155,"-37.7842509, 144.9636155"
MPM1802353,Yes,Yes,1802353,471B,"Lytton Street between Lygon Street and Cardigan Street, approximately 75m SW of VicRoads, 459 Lygon Street, CARLTON VIC 3053",-37.7937757,144.9673992,"-37.7937757, 144.9673992"
MPM1802355,Yes,Yes,1802355,472B,"Lygon Street between Lytton Street and Princes Street, approximately 11m North of VicRoads, 459 Lygon Street, CARLTON VIC 3053",-37.7932391,144.9680835,"-37.7932391, 144.9680835"
MPM1802360,Yes,Yes,1802360,899B,"Victoria Parade between Nicholson Street and Spring Street, approximately 35m SE of Burton Reserve, 1A Victoria Parade, CARLTON VIC 3053",-37.8079697,144.9726402,"-37.8079697, 144.9726402"
MPM1802362,Yes,Yes,1802362,486C,"College Crescent between Royal Parade and Cemetery Road West, approximately 10m North of Ormond College, 49 College Crescent, PARKVILLE VIC 3052",-37.7927363,144.9593642,"-37.7927363, 144.9593642"
MPM1802364,Yes,Yes,1802364,473A,"Swanston Street between Elgin Street and College Crescent, approximately 52m NW of 106 Keppel Street, CARLTON VIC 3053",-37.7939478,144.9652253,"-37.7939478, 144.9652253"
MPM1802365,Yes,Yes,1802365,896B,"Victoria Parade between Eades Street and Lansdowne Street, approximately 22m East of Dr Chandrika Parmar, Part Ground 250 Victoria Parade, EAST MELBOURNE VIC 3002",-37.8089827,144.9803599,"-37.8089827, 144.9803599"
MPM1802367,Yes,Yes,1802367,470A,"Kay Street between Canning Street and Rathdowne Street, approximately 3m North of 89-91 Kay Street, CARLTON VIC 3053",-37.7951917,144.972069,"-37.7951917, 144.972069"
MPM1802368,Yes,Yes,1802368,470B,"Kay Street between Canning Street and Rathdowne Street, approximately 3m South of 84 Kay Street, CARLTON VIC 3053",-37.7949789,144.9721279,"-37.7949789, 144.9721279"
MPM1802371,Yes,Yes,1802371,860G,"St Andrews Place between Lansdowne Street and MacArthur Street, approximately 21m South of Part Ground & Pt Lvl 4, 10 St Andrews Place, EAST MELBOURNE VIC 3002",-37.8121499,144.9773058,"-37.8121499, 144.9773058"
MPM1802373,Yes,Yes,1802373,865C,"Nicholson Street between Spring Street and Albert Street, approximately 39m East of Princess Theatre, 163-181 Spring Street, MELBOURNE VIC 3000",-37.8105704,144.9729734,"-37.8105704, 144.9729734"
MPM1802374,Yes,Yes,1802374,864B,"Gisborne Street between Cathedral Place and Albert Street, approximately 24m North of St Patricks Cathedral, 2 Gisborne Street, EAST MELBOURNE VIC 3002",-37.8102762,144.9757158,"-37.8102762, 144.9757158"
MPM1802376,Yes,Yes,1802376,863D,"Cathedral Place between Lansdowne Street and Gisborne Street, approximately 14m West of Unit Off 33 Cathedral Place,, EAST MELBOURNE VIC 3002",-37.8109886,144.9768386,"-37.8109886, 144.9768386"
MPM1805595,Yes,Yes,1805595,645A,"Little Bourke Street between Swanston Street and Elizabeth Street, approximately 24m SW of En Vogue Nails And Beauty Lounge, Shop 207B, Level 2, 287 Lonsdale Street, MELBOURNE VIC 3000",-37.812906,144.9640789,"-37.812906, 144.9640789"
MPM1805609,,Yes,1805609,363E,"Cardigan Street between Argyle Place South and Pelham Street, approximately 42m NE of Voyager Distributing Company Pty Ltd, 143-147 Cardigan Street, CARLTON VIC 3053",-37.8030171,144.9651751,"-37.8030171, 144.9651751"
MPM1805613,,Yes,1805613,192B,"Cardigan Street between Grattan Street and Faraday Street, approximately 12m South of The Lofts At Melbourne Connect, Ground, Mezzanine & Levels 1-13, 285 Cardigan Street, CARLTON VIC 3053",-37.799908,144.9654326,"-37.799908, 144.9654326"
MPM1805616,,Yes,1805616,377F,"Adderley Street between La Trobe Street and Jeffcott Street, approximately 31m North of Rail Infrastructure, 1 Adderley Street, DOCKLANDS VIC 3008",-37.813117,144.9500589,"-37.813117, 144.9500589"
MPM1805618,,Yes,1805618,128C,"Batman Street between Adderley Street and Spencer Street, approximately 28m NW of Lumina Suites, 105 Batman Street, WEST MELBOURNE VIC 3003",-37.8111634,144.9496026,"-37.8111634, 144.9496026"
MPM1805622,,Yes,1805622,377A,"Adderley Street between Jeffcott Street and Batman Street, approximately 27m South of Kirby Hvac&r Pty Ltd, 60-80 Adderley Street, WEST MELBOURNE VIC 3003",-37.8121358,144.9486305,"-37.8121358, 144.9486305"
MPM1805624,,Yes,1805624,377B,"Intersection of Adderley Street and Jeffcott Street, approximately 41m South of Judy Lazarus Transition Centre, 44-58 Adderley Street, WEST MELBOURNE VIC 3003",-37.8126754,144.949243,"-37.8126754, 144.949243"
MPM1805627,,Yes,1805627,221E,"Cobden Street between Victoria Street and Princess Street, approximately 8m North of Unilodge College Square On Cobden, 2 Cobden Street, NORTH MELBOURNE VIC 3051",-37.8055743,144.95728,"-37.8055743, 144.95728"
MPM1805646,,Yes,1805646,343C,"Rosslyn Street between Howard Street and King Street, approximately 3m North of 65 Rosslyn Street, WEST MELBOURNE VIC 3003",-37.8079121,144.9524602,"-37.8079121, 144.9524602"
MPM1805649,,Yes,1805649,219D,"William Street between Capel Street and Rosslyn Street, approximately 3m East of Ground 339 William Street, WEST MELBOURNE VIC 3003",-37.8076877,144.9544017,"-37.8076877, 144.9544017"
MPM1805659,,Yes,1805659,159C,"The Avenue between MacArthur Road and Gatehouse Street, approximately 4m NW of Townhouse 1, 4A The Avenue, PARKVILLE VIC 3052",-37.7906573,144.9576109,"-37.7906573, 144.9576109"
MPM1805665,,Yes,1805665,206F,"The Avenue between Leonard Street and Walker Street, approximately 42m SW of Treacy Conference Centre, 116-156 The Avenue, PARKVILLE VIC 3052",-37.7854249,144.9568931,"-37.7854249, 144.9568931"
MPM1805666,,Yes,1805666,149C,"Flemington Road between Melrose Street and Dryburgh Street, approximately 54m NE of 295 Flemington Road, NORTH MELBOURNE VIC 3051",-37.7916518,144.9453832,"-37.7916518, 144.9453832"
MPM1805670,,Yes,1805670,325C,"Walker Street between Royal Parade and The Avenue, approximately 25m West of 30 Walker Street, PARKVILLE VIC 3052",-37.7844801,144.9577429,"-37.7844801, 144.9577429"
MPM1805674,,Yes,1805674,376B,"Flemington Road between Gatehouse Street and Abbotsford Street, approximately 53m NE of 135 Flemington Road, NORTH MELBOURNE VIC 3051",-37.795952,144.9507579,"-37.795952, 144.9507579"
MPM1805679,,Yes,1805679,172D,"Berkeley Street between Queensberry Street and Pelham Street, approximately 2m SW of 122-136 Berkeley Street, CARLTON VIC 3053",-37.802572,144.9588603,"-37.802572, 144.9588603"
MPM1805682,,Yes,1805682,221D,"Cobden Street between Princess Street and Queensberry Street, approximately 18m SW of 51 O'Connell Street, NORTH MELBOURNE VIC 3051",-37.804652,144.9574436,"-37.804652, 144.9574436"
MPM1805684,,Yes,1805684,261A,"Elizabeth Street between Victoria Street and Queensberry Street, approximately 9m South of Cash Converters, 566 Elizabeth Street, MELBOURNE VIC 3000",-37.8051031,144.9592602,"-37.8051031, 144.9592602"
MPM1805691,,Yes,1805691,307D,"Barry Street between Leicester Street and Pelham Street, approximately 34m SW of 52-54 Barry Street, CARLTON VIC 3053",-37.8031034,144.9596539,"-37.8031034, 144.9596539"
MPM1805695,,Yes,1805695,321C,"Pelham Street between Bouverie Street and Leicester Street, approximately 15m West of The University of Melbourne, 164-170 Pelham Street, CARLTON VIC 3053",-37.8021114,144.9611469,"-37.8021114, 144.9611469"
MPM1805696,,Yes,1805696,365C,"Bouverie Street between Queensberry Street and Lincoln Square South, approximately 18m North of Unilodge Lincoln House, 125 Bouverie Street, CARLTON VIC 3053",-37.8035212,144.9617821,"-37.8035212, 144.9617821"
MPM1805698,,Yes,1805698,228F,"Bouverie Street between Victoria Street and Queensberry Street, approximately 7m North of Mr Dad Asian Supermarket, 16 Bouverie Street, CARLTON VIC 3053",-37.8060132,144.961641,"-37.8060132, 144.961641"
MPM1805700,,Yes,1805700,355D,"Lincoln Square North between Swanston Street and Bouverie Street, approximately 32m SE of 20 Lincoln Square North, CARLTON VIC 3053",-37.8017251,144.9632721,"-37.8017251, 144.9632721"
MPM1805702,,Yes,1805702,178D,"Bouverie Street between Lincoln Square North and Grattan Street, approximately 4m NW of Lincoln Bakery Cafe, 154 Bouverie Street, CARLTON VIC 3053",-37.8011969,144.9624814,"-37.8011969, 144.9624814"
MPM1805706,,Yes,1805706,201F,"Elizabeth Street between Queensberry Street and Pelham Street, approximately 6m SW of Student Housing Australia Pty Ltd, 646 Elizabeth Street, MELBOURNE VIC 3000",-37.8033019,144.9584298,"-37.8033019, 144.9584298"
MPM1805708,,Yes,1805708,365D,"Bouverie Street between Queensberry Street and Lincoln Square South, approximately 12m NW of Dan's Deli, 210 Queensberry Street, CARLTON VIC 3053",-37.8041961,144.961958,"-37.8041961, 144.961958"
MPM1805710,,Yes,1805710,228A,"Bouverie Street between Victoria Street and Queensberry Street, approximately 3m NE of Bouverie Dental, 69 Bouverie Street, CARLTON VIC 3053",-37.8048971,144.9615567,"-37.8048971, 144.9615567"
MPM1805712,,Yes,1805712,262B,"Swanston Street between Queensberry Street and Lincoln Square South, approximately 23m North of Essence Hotel Carlton, 609 Swanston Street, CARLTON VIC 3053",-37.8039564,144.9632259,"-37.8039564, 144.9632259"
MPM1805716,Yes,Yes,1805716,974A,"Caravel Lane between Rakaia Way and Aquitania Way, approximately 15m NW of ACD Apartments, 7 Caravel Lane, DOCKLANDS VIC 3008",-37.8139301,144.9418514,"-37.8139301, 144.9418514"
MPM1805732,,Yes,1805732,811A,"Moubray Street between St Kilda Road and Punt Road, approximately 20m West of Ormond Collective, 17 Moubray Street, MELBOURNE VIC 3004",-37.8478139,144.9810657,"-37.8478139, 144.9810657"
MPM1805733,,Yes,1805733,811B,"Moubray Street between St Kilda Road and Punt Road, approximately 26m SW of Ormond Collective, 17 Moubray Street, MELBOURNE VIC 3004",-37.8479568,144.9810449,"-37.8479568, 144.9810449"
MPM1805739,,Yes,1805739,820A,"Kings Domain South, approximately 86m East of Melbourne Grammar School, Senior School, Melbourne Grammar School, 47 Domain Road, MELBOURNE VIC 3004",-37.8333216,144.9768679,"-37.8333216, 144.9768679"
MPM1805740,,Yes,1805740,820D,"Kings Domain South, approximately 33m North of 148 Domain Street, SOUTH YARRA VIC 3141",-37.8335913,144.9789731,"-37.8335913, 144.9789731"
MPM1805741,,Yes,1805741,820E,"Kings Domain South, approximately 23m NE of Melbourne Grammar School, Strickland P.E. Centre, Melbourne Grammar School, Rear 109 Domain Road, SOUTH YARRA VIC 3141",-37.833673,144.9796001,"-37.833673, 144.9796001"
MPM1805743,,Yes,1805743,822A,"Birdwood Avenue between Dallas Brooks Drive and Domain Road, approximately 50m SW of E Gate Lodge, Royal Botanic Gardens Victoria, 32 Birdwood Avenue, MELBOURNE VIC 3004",-37.833199,144.9797968,"-37.833199, 144.9797968"
MPM1805748,,Yes,1805748,823F,"Birdwood Avenue between Dallas Brooks Drive and Domain Road, approximately 51m South of The Nursery and Works Yard, Royal Botanic Gardens Victoria, 48 Birdwood Avenue, MELBOURNE VIC 3004",-37.8329498,144.979058,"-37.8329498, 144.979058"
MPM1805750,,Yes,1805750,825A,"Kings Domain South, approximately 63m East of Shrine of Remembrance Reserve, 1 Anzac Avenue, MELBOURNE VIC 3004",-37.8272491,144.9726467,"-37.8272491, 144.9726467"
MPM1805754,,Yes,1805754,828A,Kings Domain,-37.8250976,144.972366,"-37.8250976, 144.972366"
MPM1805758,,Yes,1805758,835A,Alexandra Park,-37.8204089,144.973897,"-37.8204089, 144.973897"
MPM1805764,,Yes,1805764,777B,"St Kilda Road between Coventry Street and Dorcas Street, approximately 57m East of Ground 324 St Kilda Road, SOUTHBANK VIC 3006",-37.8296092,144.971599,"-37.8296092, 144.971599"
MPM1805771,,Yes,1805771,802A,"St Kilda Road between Armadale Street and Commercial Road, approximately 8m NW of Cellarbration And Urban Hub, Part Ground 479 St Kilda Road, MELBOURNE VIC 3004",-37.8420351,144.9779524,"-37.8420351, 144.9779524"
MPM1805772,,Yes,1805772,802B,"St Kilda Road between Armadale Street and Commercial Road, approximately 26m SW of Cellarbration And Urban Hub, Part Ground 479 St Kilda Road, MELBOURNE VIC 3004",-37.8422683,144.9778695,"-37.8422683, 144.9778695"
MPM1805774,,Yes,1805774,803A,"St Kilda Road between Slater Street and Armadale Street, approximately 20m West of Commodity Cafe, Part Ground 441 St Kilda Road, MELBOURNE VIC 3004",-37.8395361,144.9768752,"-37.8395361, 144.9768752"
MPM1805779,,Yes,1805779,858B,"Lansdowne Street between Cathedral Place and Albert Street, approximately 27m East of Maintenance Sheds, St Patricks Cathedral, 7 Lansdowne Street, EAST MELBOURNE VIC 3002",-37.8106305,144.9783186,"-37.8106305, 144.9783186"
MPM1805781,,Yes,1805781,859A,"Lansdowne Street between Albert Street and Victoria Parade, approximately 27m East of The Dermal Space, 25 Lansdowne Street, EAST MELBOURNE VIC 3002",-37.8090502,144.9785841,"-37.8090502, 144.9785841"
MPM1805787,,Yes,1805787,855D,"Wellington Parade between Clarendon Street and Jolimont Road, approximately 76m NE of Jolimont Reserve, 64-168 Wellington Parade South, EAST MELBOURNE VIC 3002",-37.8158258,144.9811133,"-37.8158258, 144.9811133"
MPM1805789,,Yes,1805789,882A,"Grey Street between Simpson Street and Powlett Street, approximately 29m North of 87 Grey Street, EAST MELBOURNE VIC 3002",-37.81184,144.9866408,"-37.81184, 144.9866408"
MPM1805793,,Yes,1805793,869B,"Albert Street between Lansdowne Street and Eades Street, approximately 32m South of Mary MacKillop Heritage Centre, 346-362 Albert Street, EAST MELBOURNE VIC 3002",-37.8100688,144.9793452,"-37.8100688, 144.9793452"
MPM1805798,,Yes,1805798,476D,Lygon Street between Princes Street and Macpherson Street,-37.7913778,144.9683997,"-37.7913778, 144.9683997"
MPM1805802,,Yes,1805802,485A,"College Crescent between Swanston Street and Princes Park Drive, approximately 41m NW of St Hilda's College Limited, St Hilda's College, 19-27 College Crescent, PARKVILLE VIC 3052",-37.7918748,144.9625198,"-37.7918748, 144.9625198"
MPM1805807,,Yes,1805807,475A,"Cemetery Road East between College Crescent and Lygon Street, approximately 29m NW of Unit 2, Ground 495 Cardigan Street, CARLTON VIC 3053",-37.793349,144.966241,"-37.793349, 144.966241"
MPM1805813,,Yes,1805813,480A,Princes Park,-37.7869301,144.9629549,"-37.7869301, 144.9629549"
MPM1805816,,Yes,1805816,490A,"Royal Parade between MacArthur Road and Leonard Street, approximately 18m NW of Southern Sports Pavilion, Princes Park, 240 Royal Parade, CARLTON NORTH VIC 3054",-37.788077,144.9592037,"-37.788077, 144.9592037"
MPM1805817,,Yes,1805817,478A,Cemetery Road West between Royal Parade and College Crescent,-37.7909133,144.9600008,"-37.7909133, 144.9600008"
MPM1805820,,Yes,1805820,482A,"Bowen Crescent between Garton Street and Park Street, approximately 3m North of Princes Park Carlton Bowls Club Inc, Princes Park Carlton Bowls Club, Princes Park, 109 Bowen Crescent, CARLTON NORTH VIC 3054",-37.7787747,144.9621767,"-37.7787747, 144.9621767"
MPM1805821,,Yes,1805821,483A,"Park Street between Royal Parade and Bowen Crescent, approximately 67m East of Two Fat Indians, Food Truck-A7 Near Princes Park Carlton Bowls Club, 109 Bowen Crescent, CARLTON NORTH VIC 3054",-37.7782693,144.9611433,"-37.7782693, 144.9611433"
MPM1805822,,Yes,1805822,487A,"Royal Parade between Ievers Street and Park Street, approximately 24m South of Two Fat Indians, Food Truck-A7 Near Princes Park Carlton Bowls Club, 109 Bowen Crescent, CARLTON NORTH VIC 3054",-37.7785836,144.9603771,"-37.7785836, 144.9603771"
MPM1805825,,Yes,1805825,489A,"Royal Parade between Leonard Street and Walker Street, approximately 66m NE of Lisa Bellear House, Lise Bellear House, 303-309 Royal Parade, PARKVILLE VIC 3052",-37.7860853,144.9594499,"-37.7860853, 144.9594499"
MPM1805827,,Yes,1805827,486A,"College Crescent between Royal Parade and Cemetery Road West, approximately 23m North of Janet Clarke Hall, 57-63 College Crescent, PARKVILLE VIC 3052",-37.7935595,144.9586832,"-37.7935595, 144.9586832"
MPM1805829,,Yes,1805829,875A,"Clarendon Street between Gipps Street and Grey Street, approximately 28m West of Precision Haematology, Part Ground 140 Clarendon Street, EAST MELBOURNE VIC 3002",-37.8122313,144.9830994,"-37.8122313, 144.9830994"
MPM1805832,,Yes,1805832,852A,"Wellington Parade South between Wellington Crescent and Flinders Street, approximately 3m NE of 227 Wellington Parade South, EAST MELBOURNE VIC 3002",-37.8162832,144.976948,"-37.8162832, 144.976948"
MPM1805835,,Yes,1805835,851A,"Wellington Parade South between Charles Street and Agnes Street, approximately 20m South of Jolimont Reserve, 64-168 Wellington Parade South, EAST MELBOURNE VIC 3002",-37.8165847,144.9807176,"-37.8165847, 144.9807176"
MPM1805837,,Yes,1805837,222B,"O'Connell Street between Victoria Street and Queensberry Street, approximately 19m NW of Carric Hostel, Hostel 238 Victoria Street, MELBOURNE VIC 3000",-37.8058872,144.9584236,"-37.8058872, 144.9584236"
MPM1805840,,Yes,1805840,860B,"St Andrews Place between Lansdowne Street and MacArthur Street, approximately 30m South of National Trust of Australia (Victoria), 2-8 Parliament Place, EAST MELBOURNE VIC 3002",-37.8119446,144.9754195,"-37.8119446, 144.9754195"
MPM1805843,,Yes,1805843,863A,"Cathedral Place between Lansdowne Street and Gisborne Street, approximately 33m NE of German Lutheran Trinity Church East Melbourne Inc., 65-75 Cathedral Place, EAST MELBOURNE VIC 3002",-37.8106799,144.9761684,"-37.8106799, 144.9761684"
MPM1805844,,Yes,1805844,863B,"Cathedral Place between Lansdowne Street and Gisborne Street, approximately 44m West of Unit Off 33 Cathedral Place,, EAST MELBOURNE VIC 3002",-37.8109518,144.9765001,"-37.8109518, 144.9765001"
MPM1805845,,Yes,1805845,863E,"Cathedral Place between Lansdowne Street and Gisborne Street, approximately 30m North of St Vincent's Hospital on the Park, 11 Cathedral Place, EAST MELBOURNE VIC 3002",-37.8108284,144.9775011,"-37.8108284, 144.9775011"
MPM1805847,,Yes,1805847,865B,"Nicholson Street between Spring Street and Albert Street, approximately 55m NE of Holmes Colleges Australia Pty Ltd, 185-197 Spring Street, MELBOURNE VIC 3000",-37.8101697,144.9729779,"-37.8101697, 144.9729779"
MPM1805851,,Yes,1805851,831B,"Alexandra Park, approximately 46m East of Refresher Truck, Food Truck - Site No A5 Sth of Swan Bridge, Alexandra Avenue, MELBOURNE VIC 3004",-37.8278482,144.982462,"-37.8278482, 144.982462"
MPM1805853,,Yes,1805853,831D,Alexandra Avenue between Swan Street Bridge and Anderson Street,-37.8281722,144.983316,"-37.8281722, 144.983316"
MPM1805854,,Yes,1805854,832F,"Alexandra Avenue between Swan Street Bridge and Anderson Street, approximately 54m West of Refresher Truck, Food Truck - Site No A5 Sth of Swan Bridge, Alexandra Avenue, MELBOURNE VIC 3004",-37.8276952,144.981348,"-37.8276952, 144.981348"
MPM1805855,,Yes,1805855,832E,"Alexandra Park, approximately 56m NW of Refresher Truck, Food Truck - Site No A5 Sth of Swan Bridge, Alexandra Avenue, MELBOURNE VIC 3004",-37.8275282,144.981378,"-37.8275282, 144.981378"
MPM1805859,,Yes,1805859,833F,"Alexandra Avenue between Swan Street Bridge and Anderson Street, approximately 67m North of Plant Craft Cottage, Royal Botanic Gardens Victoria, 1A Alexandra Avenue, MELBOURNE VIC 3004",-37.8266432,144.979639,"-37.8266432, 144.979639"
MPM1805860,,Yes,1805860,833E,Alexandra Avenue between Swan Street Bridge and Anderson Street,-37.8263072,144.979196,"-37.8263072, 144.979196"
MPM1805862,,Yes,1805862,899A,"Victoria Parade between Nicholson Street and Spring Street, approximately 20m South of Burton Reserve, 1A Victoria Parade, CARLTON VIC 3053",-37.8079284,144.972265,"-37.8079284, 144.972265"
MPM1805868,,Yes,1805868,109B,"Park Street between West Coburg Tramway and Royal Parade, approximately 81m West of Royal Park Brunswick Cricket Club Inc, Western Pavilion, Royal Park, 776 Park Street, PARKVILLE VIC 3052",-37.7773412,144.9534139,"-37.7773412, 144.9534139"
MPM1805869,,Yes,1805869,110A,"Park Street between West Coburg Tramway and Royal Parade, approximately 57m East of City of Melbourne, Royal Park Depot, 750 Park Street, PARKVILLE VIC 3052",-37.7777467,144.9567453,"-37.7777467, 144.9567453"
MPM1805870,,Yes,1805870,837C,"Alexandra Avenue between Punt Road and Walsh Street, approximately 54m NE of 327-329 Walsh Street, SOUTH YARRA VIC 3141",-37.8295194,144.9868822,"-37.8295194, 144.9868822"
MPM1805871,,Yes,1805871,837A,"Alexandra Avenue between Anderson Street and Walsh Street, approximately 23m NE of 13 Alexandra Avenue, SOUTH YARRA VIC 3141",-37.8287372,144.985986,"-37.8287372, 144.985986"
MPM1805875,,Yes,1805875,319C,"Cardigan Street between Victoria Street and Queensberry Street, approximately 3m West of Royal Melbourne Institute Of Technology, 24 Cardigan Street, CARLTON VIC 3053",-37.8061881,144.964625,"-37.8061881, 144.964625"
MPM1805878,,Yes,1805878,238A,"Jeffcott Street between Spencer Street and King Street, approximately 7m SW of The Australian Federation Of Islamic Councils Inc, Ground, Level 1 & Part Level 2, 66-68 Jeffcott Street, WEST MELBOURNE VIC 3003",-37.8119001,144.9514042,"-37.8119001, 144.9514042"
MPM1805880,,Yes,1805880,347E,"Capel Street between William Street and Victoria Street, approximately 3m West of 44 Capel Street, WEST MELBOURNE VIC 3003",-37.8070566,144.9550809,"-37.8070566, 144.9550809"
MPM1805891,,Yes,1805891,329E,"Wreckyn Street between Flemington Road and Courtney Street, approximately 3m North of North Melbourne ENT Surgery, Ground 32 Wreckyn Street, NORTH MELBOURNE VIC 3051",-37.8003645,144.9543436,"-37.8003645, 144.9543436"
MPM1805895,,Yes,1805895,231B,"Peel Street between Queensberry Street and Elizabeth Street, approximately 4m SE of ST Skin, 243 Peel Street, NORTH MELBOURNE VIC 3051",-37.801629,144.9565364,"-37.801629, 144.9565364"
MPM1805905,,Yes,1805905,331E,"Villiers Street between Flemington Road and Courtney Street, approximately 6m North of Lort Smith Animal Hospital, 24-34 Villiers Street, NORTH MELBOURNE VIC 3051",-37.7999291,144.952751,"-37.7999291, 144.952751"
MPM1805907,,Yes,1805907,332B,"Harcourt Street between Courtney Street and Flemington Road, approximately 31m North of 68 Harcourt Street, NORTH MELBOURNE VIC 3051",-37.7986452,144.9518627,"-37.7986452, 144.9518627"
MPM1843073,Yes,Yes,1843073,750C,"Whiteman Street between West Gate Freeway and Clarendon Street, approximately 78m South of Normanby Road Reserve, 17-79 Normanby Road, SOUTHBANK VIC 3006",-37.8272329,144.9554548,"-37.8272329, 144.9554548"
MPM1843080,Yes,Yes,1843080,642B,"Little Bourke Street between Spring Street and Exhibition Street, approximately 3m SE of Gordon House Apartments, 24-38 Little Bourke Street, MELBOURNE VIC 3000",-37.8106324,144.9716118,"-37.8106324, 144.9716118"
MPM1851910,Yes,Yes,1851910,232E,"Batman Street between Spencer Street and King Street, approximately 4m East of 72 Batman Street, WEST MELBOURNE VIC 3003",-37.8108116,144.9507944,"-37.8108116, 144.9507944"
MPM1851919,Yes,Yes,1851919,853B,"Wellington Parade South between Wellington Crescent and Flinders Street, approximately 24m NE of Treasury Square Site, 295-357 Wellington Parade South, MELBOURNE VIC 3004",-37.8158514,144.9749618,"-37.8158514, 144.9749618"
MPM1851927,,Yes,1851927,493B,"Royal Parade between Morrah Street and Story Street, approximately 42m NW of The University of Melbourne, Faculty of Vet & Ag Science Building 142, 56 Royal Parade, PARKVILLE VIC 3010",-37.7965272,144.9582377,"-37.7965272, 144.9582377"
MPM1851928,Yes,Yes,1851928,494B,"Royal Parade between Grattan Street and Story Street, approximately 28m North of The Florey Inst. Of Neuroscience And Mental Health, Part Kenneth Myer Building 144, 30 Royal Parade, PARKVILLE VIC 3010",-37.7978353,144.9580348,"-37.7978353, 144.9580348"
MPM1851931,Yes,Yes,1851931,875B,"Clarendon Street between Hotham Street and Gipps Street, approximately 35m SW of Bishopscourt, 84-122 Clarendon Street, EAST MELBOURNE VIC 3002",-37.8130558,144.9829596,"-37.8130558, 144.9829596"
MPM1851933,Yes,Yes,1851933,851B,"Intersection of Wellington Parade South and Charles Street, approximately 20m North of 89 Wellington Parade South, EAST MELBOURNE VIC 3002",-37.8166602,144.9814031,"-37.8166602, 144.9814031"
MPM1851936,Yes,Yes,1851936,231C,"Peel Street between Queensberry Street and Elizabeth Street, approximately 5m SE of Media Arts Lawyers Pty Ltd, 187-189 Peel Street, NORTH MELBOURNE VIC 3051",-37.8033287,144.9562282,"-37.8033287, 144.9562282"
MPM1851947,Yes,Yes,1851947,773B,St Kilda Road between Dorcas Street and Domain Road,-37.8311873,144.9715073,"-37.8311873, 144.9715073"
MPM1860392,Yes,Yes,1860392,644A,"Little Bourke Street between Russell Street and Swanston Street, approximately 3m West of Mr Bo Restaurant, Shop 23, 219 Little Bourke Street, MELBOURNE VIC 3000",-37.8123008,144.9661424,"-37.8123008, 144.9661424"
MPM1860393,Yes,Yes,1860393,620A,"Collins Street between Swanston Street and Elizabeth Street, approximately 5m South of L'Occitane Australia, 280 Collins Street, MELBOURNE VIC 3000",-37.8159095,144.9647822,"-37.8159095, 144.9647822"
MPM1860395,Yes,Yes,1860395,620B,"Collins Street between Swanston Street and Elizabeth Street, approximately 5m NW of Tiffany & Co., Gnd, Mezzanine & Lvl 1, 267 Collins Street, MELBOURNE VIC 3000",-37.8160302,144.9650344,"-37.8160302, 144.9650344"
MPM1860397,Yes,Yes,1860397,611A,"Flinders Lane between Swanston Street and Elizabeth Street, approximately 10m South of Amano By Lorena Laing, Shop 5, Ground 280 Flinders Lane, MELBOURNE VIC 3000",-37.8170767,144.9650462,"-37.8170767, 144.9650462"
MPM1860399,Yes,Yes,1860399,608C,"Flinders Lane between Spring Street and Exhibition Street, approximately 5m NE of Part Unit 2, 65 Flinders Lane, MELBOURNE VIC 3000",-37.8148748,144.9725483,"-37.8148748, 144.9725483"
MPM1860404,Yes,Yes,1860404,653C,"Lonsdale Street between Swanston Street and Elizabeth Street, approximately 5m North of Shop 31A, Ground 287 Lonsdale Street, MELBOURNE VIC 3000",-37.8118512,144.964142,"-37.8118512, 144.964142"
MPM1860408,Yes,Yes,1860408,523B,"Russell Street between Little Lonsdale Street and La Trobe Street, approximately 4m West of Melcorp Real Estate Pty Ltd, 308 Russell Street, MELBOURNE VIC 3000",-37.8094075,144.9666879,"-37.8094075, 144.9666879"
MPM1868996,Yes,Yes,1868996,640A,"Bourke Street between William Street and King Street, approximately 7m South of Le's Vietnamese Street Food Victoria, Shop 2, LwrGround 600 Bourke Street, MELBOURNE VIC 3000",-37.8161694,144.9561967,"-37.8161694, 144.9561967"
MPM1868997,Yes,Yes,1868997,640B,"Bourke Street between William Street and King Street, approximately 3m North of Brief Melbourne, Part Ground 575 Bourke Street, MELBOURNE VIC 3000",-37.8162352,144.9566549,"-37.8162352, 144.9566549"
MPM1869000,Yes,Yes,1869000,652C,"Lonsdale Street between Russell Street and Swanston Street, approximately 4m South of Grandcity Travel Pty Ltd, 224-226 Lonsdale Street, MELBOURNE VIC 3000",-37.8112236,144.9655065,"-37.8112236, 144.9655065"
MPM1869009,Yes,Yes,1869009,564A,"Gresham Street between Bourke Street and Little Bourke Street, approximately 34m NW of Secure Parking, Basement & Part Ground, 570 Bourke Street, MELBOURNE VIC 3000",-37.8156883,144.9566117,"-37.8156883, 144.9566117"
MPM1869010,Yes,Yes,1869010,530B,"Elizabeth Street between Little Collins Street and Bourke Street, approximately 5m NW of EzyMart, Ground 150 Elizabeth Street, MELBOURNE VIC 3000",-37.8146697,144.9634814,"-37.8146697, 144.9634814"
MPM1885768,Yes,Yes,1885768,621C,"Collins Street between Elizabeth Street and Queen Street, approximately 6m NW of Tenancy 2, 371 Collins Street, MELBOURNE VIC 3000",-37.8168817,144.962091,"-37.8168817, 144.962091"
MPM1885769,Yes,Yes,1885769,528B,"Elizabeth Street between Flinders Lane and Collins Street, approximately 5m East of Barhion, Shop Ground 61 Elizabeth Street, MELBOURNE VIC 3000",-37.8168244,144.9642138,"-37.8168244, 144.9642138"
MPM1885770,Yes,Yes,1885770,638D,"Bourke Street between Elizabeth Street and Queen Street, approximately 5m North of Hawaii Massage, 387 Bourke Street, MELBOURNE VIC 3000",-37.8145809,144.9623793,"-37.8145809, 144.9623793"
MPM1885777,Yes,Yes,1885777,629A,"Little Collins Street between Swanston Street and Elizabeth Street, approximately 1m North of T2, 269 Little Collins Street, MELBOURNE VIC 3000",-37.8147221,144.9655073,"-37.8147221, 144.9655073"
MPM1891100,Yes,Yes,1891100,721A,"Southbank Boulevard between Riverside Quay and City Road, approximately 28m SE of Wilson Parking Australia 1992 Pty Ltd, Carpark C-R, 4 Southbank Boulevard, SOUTHBANK VIC 3006",-37.8219793,144.963146,"-37.8219793, 144.963146"
MPM1891102,Yes,Yes,1891102,531A,"Anthony Street between Franklin Street and A'Beckett Street, approximately 3m South of Swinnerton House, 14-16 Anthony Street, MELBOURNE VIC 3000",-37.8093253,144.9591636,"-37.8093253, 144.9591636"
MPM1891103,Yes,Yes,1891103,552B,"Market Street between Flinders Street and Flinders Lane, approximately 21m South of Simpsons Burgers, Part Ground 40 Market Street, MELBOURNE VIC 3000",-37.8185103,144.9608736,"-37.8185103, 144.9608736"
MPM1891106,Yes,Yes,1891106,760D,"Sturt Street between Miles Street and Coventry Street, approximately 10m SW of 215-217 Sturt Street, SOUTHBANK VIC 3006",-37.8295082,144.9656494,"-37.8295082, 144.9656494"
MPM1891109,Yes,Yes,1891109,678D,"A'Beckett Street between Elizabeth Street and Queen Street, approximately 8m NE of Yakiniku Like, Shop G1, Ground 119 A'Beckett Street, MELBOURNE VIC 3000",-37.8095291,144.9601632,"-37.8095291, 144.9601632"
MPM1891119,Yes,Yes,1891119,629B,"Little Collins Street between Swanston Street and Elizabeth Street, approximately 12m South of 302 Little Collins Street, MELBOURNE VIC 3000",-37.8149955,144.9645636,"-37.8149955, 144.9645636"
MPM1891121,Yes,Yes,1891121,729B,"Clarke Street between Hancock Street and Catherine Street, approximately 4m West of Part Ground 51-65 Clarke Street, SOUTHBANK VIC 3006",-37.8273576,144.9594584,"-37.8273576, 144.9594584"
MPM1891122,Yes,Yes,1891122,729C,"Clarke Street between Hancock Street and West Gate Freeway, approximately 21m NW of Crown Melbourne Limited, 71-75 Clarke Street, SOUTHBANK VIC 3006",-37.8279818,144.9597498,"-37.8279818, 144.9597498"
MPM1891123,Yes,Yes,1891123,729D,"Clarke Street between Hancock Street and West Gate Freeway, approximately 25m NW of Crown Melbourne Limited, 71-75 Clarke Street, SOUTHBANK VIC 3006",-37.8280356,144.9596077,"-37.8280356, 144.9596077"
MPM1891126,Yes,Yes,1891126,677C,"A'Beckett Street between Swanston Street and Elizabeth Street, approximately 4m West of Surasang, 55-59 A'Beckett Street, MELBOURNE VIC 3000",-37.8090359,144.9618643,"-37.8090359, 144.9618643"
MPM1891128,Yes,Yes,1891128,677D,"A'Beckett Street between Swanston Street and Elizabeth Street, approximately 13m East of 48-50 A'Beckett Street, MELBOURNE VIC 3000",-37.8088518,144.9619658,"-37.8088518, 144.9619658"
MPM1891609,Yes,Yes,1891609,141A,"Intersection of Ievers Street and The Avenue, approximately 53m SW of Marilyn Rowe House, 260-270 The Avenue, PARKVILLE VIC 3052",-37.7814908,144.9573903,"-37.7814908, 144.9573903"
MPM1891611,Yes,Yes,1891611,205A,"The Avenue between Walker Street and Ievers Street, approximately 28m SW of Ridley College, Gnd & Flr1 Ridley College, 170-172 The Avenue, PARKVILLE VIC 3052",-37.7839191,144.9569982,"-37.7839191, 144.9569982"
MPM1891612,Yes,Yes,1891612,205C,"The Avenue between Walker Street and Ievers Street, approximately 34m NW of Flat 24, 202 The Avenue, PARKVILLE VIC 3052",-37.7824506,144.9571986,"-37.7824506, 144.9571986"
MPM1891624,Yes,Yes,1891624,822D,"Kings Domain South, approximately 38m South of E Gate Lodge, Royal Botanic Gardens Victoria, 32 Birdwood Avenue, MELBOURNE VIC 3004",-37.8333488,144.9803803,"-37.8333488, 144.9803803"
MPM1891626,Yes,Yes,1891626,368A,"Lygon Street between Argyle Place South and Pelham Street, approximately 6m West of Carlton Audio/Visual, 164 Lygon Street, CARLTON VIC 3053",-37.8033586,144.966586,"-37.8033586, 144.966586"
MPM1891627,Yes,Yes,1891627,368C,"Lygon Street between Queensberry Street and Argyle Place South, approximately 6m West of Kantin, 122 Lygon Street, CARLTON VIC 3053",-37.8041598,144.9664515,"-37.8041598, 144.9664515"
MPM1891628,Yes,Yes,1891628,311D,"Queensberry Street between Drummond Street and Lygon Street, approximately 22m West of Romanian Orthodox Church, Part 61-63 Queensberry Street, CARLTON VIC 3053",-37.8050601,144.966708,"-37.8050601, 144.966708"
MPM1891632,Yes,Yes,1891632,231D,"Peel Street between Queensberry Street and Elizabeth Street, approximately 13m North of Artisans Of Spring, 217 Peel Street, NORTH MELBOURNE VIC 3051",-37.80251,144.9563762,"-37.80251, 144.9563762"
MPM1891637,Yes,Yes,1891637,807A,"St Kilda Road between Domain Road and Bromby Street, approximately 93m SE of Melbourne Grammar School, Wadhurst Campus, Melbourne Grammar School, 1 Domain Road, MELBOURNE VIC 3004",-37.8338447,144.9740545,"-37.8338447, 144.9740545"
MPM1891639,Yes,Yes,1891639,349C,"Lygon Street between Grattan Street and Faraday Street, approximately 7m NW of Bendigo Bank, 282 Lygon Street, CARLTON VIC 3053",-37.8002483,144.9671348,"-37.8002483, 144.9671348"
MPM1891640,Yes,Yes,1891640,367B,"Lygon Street between Argyle Place North and Grattan Street, approximately 6m East of 7-Eleven, 161 Lygon Street, CARLTON VIC 3053",-37.8019211,144.9666111,"-37.8019211, 144.9666111"
MPM1891641,Yes,Yes,1891641,313C,"Queensberry Street between Rathdowne Street and Drummond Street, approximately 9m West of Capital Radiology, Ground 32 Queensberry Street, CARLTON VIC 3053",-37.8049826,144.9680645,"-37.8049826, 144.9680645"
MPM1891644,Yes,Yes,1891644,223D,"Lygon Street between Victoria Street and Queensberry Street, approximately 5m NW of Christian Chapel - Lygon St Church Of Christ Inc, 54 Lygon Street, CARLTON VIC 3053",-37.8057459,144.9662079,"-37.8057459, 144.9662079"
MPM1891647,Yes,Yes,1891647,297D,"Cardigan Street between Queensberry Street and Argyle Place South, approximately 19m South of 102 Cardigan Street, CARLTON VIC 3053",-37.8043995,144.9649384,"-37.8043995, 144.9649384"
MPM1891653,Yes,Yes,1891653,775D,"St Kilda Road between Anzac Avenue and Coventry Street, approximately 43m East of Department Of Defence, Victoria Barracks Melbourne, 256-310 St Kilda Road, SOUTHBANK VIC 3006",-37.8274787,144.9715311,"-37.8274787, 144.9715311"
MPM1891660,Yes,Yes,1891660,318A,"Queensberry Street between Swanston Street and Bouverie Street, approximately 14m East of Central Cleaning Supplies (Aust) Pty Ltd, 201-203 Queensberry Street, CARLTON VIC 3053",-37.804583,144.9623429,"-37.804583, 144.9623429"
MPM1891663,Yes,Yes,1891663,310B,"Queensberry Street between Bouverie Street and Leicester Street, approximately 4m South of Melbourne Graduate School Of Education, 234 Queensberry Street, CARLTON VIC 3053",-37.8042149,144.961043,"-37.8042149, 144.961043"
MPM1891669,Yes,Yes,1891669,296A,"Cardigan Street between Argyle Place North and Grattan Street, approximately 3m SW of 170-174 Cardigan Street, CARLTON VIC 3053",-37.8011074,144.965505,"-37.8011074, 144.965505"
MPM1891671,Yes,Yes,1891671,356C,"Argyle Place South between Lygon Street and Cardigan Street, approximately 4m NE of Clinica Lase, Ground 23-25 Argyle Place South, CARLTON VIC 3053",-37.8035656,144.9655871,"-37.8035656, 144.9655871"
MPM1891672,Yes,Yes,1891672,373B,"Grattan Street between Cardigan Street and Swanston Street, approximately 23m West of Domino's Pizza, Shop 2, Ground 121 Grattan Street, CARLTON VIC 3053",-37.8006188,144.964964,"-37.8006188, 144.964964"
MPM1891681,Yes,Yes,1891681,313A,"Queensberry Street between Rathdowne Street and Drummond Street, approximately 18m NE of Elmsmere House, 70-72 Drummond Street, CARLTON VIC 3053",-37.8052028,144.9680263,"-37.8052028, 144.9680263"
MPM1891682,Yes,Yes,1891682,311B,"Queensberry Street between Drummond Street and Lygon Street, approximately 16m East of 68 Queensberry Street, CARLTON VIC 3053",-37.804867,144.9669995,"-37.804867, 144.9669995"
MPM1891683,Yes,Yes,1891683,311A,"Queensberry Street between Drummond Street and Lygon Street, approximately 3m North of Romanian Orthodox Church, Part 61-63 Queensberry Street, CARLTON VIC 3053",-37.8050844,144.9669545,"-37.8050844, 144.9669545"
MPM1891685,Yes,Yes,1891685,293B,"Pelham Street between Rathdowne Street and Drummond Street, approximately 35m West of Sacred Heart, 169 Rathdowne Street, CARLTON VIC 3053",-37.8029791,144.9689968,"-37.8029791, 144.9689968"
MPM1891687,Yes,Yes,1891687,775E,"Marquis of Linlithgow Memorial Reserve, approximately 28m SW of Marquis of Linlithgow Memorial Reserve, 257-269 St Kilda Road, MELBOURNE VIC 3004",-37.826867,144.9716845,"-37.826867, 144.9716845"
MPM1891691,Yes,Yes,1891691,162A,"Rathdowne Street between Pelham Street and Grattan Street, approximately 3m NE of 233 Rathdowne Street, CARLTON VIC 3053",-37.8016499,144.9696287,"-37.8016499, 144.9696287"
MPM1891692,Yes,Yes,1891692,162B,"Rathdowne Street between Pelham Street and Grattan Street, approximately 27m East of 233 Rathdowne Street, CARLTON VIC 3053",-37.8017585,144.9698977,"-37.8017585, 144.9698977"
MPM1891694,Yes,Yes,1891694,191B,"Queensberry Street between Lygon Street and Cardigan Street, approximately 27m South of Triggah Hair, 102 Queensberry Street, CARLTON VIC 3053",-37.8049304,144.9655245,"-37.8049304, 144.9655245"
MPM1891699,Yes,Yes,1891699,349A,"Lygon Street between Grattan Street and Faraday Street, approximately 6m West of Husk, Ground 324 Lygon Street, CARLTON VIC 3053",-37.7994086,144.9672708,"-37.7994086, 144.9672708"
MPM1891704,Yes,Yes,1891704,356A,"Argyle Place South between Lygon Street and Cardigan Street, approximately 16m NW of Parco Canteen, 2 Argyle Place South, CARLTON VIC 3053",-37.8033801,144.9660053,"-37.8033801, 144.9660053"
MPM1895391,Yes,Yes,1895391,ZOO10,Royal Park,-37.7844492,144.9548363,"-37.7844492, 144.9548363"
MPM1898585,Yes,Yes,1898585,886A,"Grey Street between Powlett Street and Clarendon Street, approximately 4m SW of 128 Grey Street, EAST MELBOURNE VIC 3002",-37.8115696,144.9841575,"-37.8115696, 144.9841575"
MPM1898595,Yes,Yes,1898595,885B,"Albert Street between Hoddle Street and Simpson Street, approximately 4m NE of 39 Albert Street, EAST MELBOURNE VIC 3002",-37.8111978,144.9896645,"-37.8111978, 144.9896645"
MPM1898597,Yes,Yes,1898597,878D,"Albert Street between Powlett Street and Clarendon Street, approximately 4m SW of Care Park, Part Basement 160 Albert Street, EAST MELBOURNE VIC 3002",-37.810539,144.9856121,"-37.810539, 144.9856121"
MPM1898598,Yes,Yes,1898598,878B,"Albert Street between Powlett Street and Clarendon Street, approximately 19m East of Epworth Freemasons GP Clinic, 113 Albert Street, EAST MELBOURNE VIC 3002",-37.8106356,144.984523,"-37.8106356, 144.984523"
MPM1898601,Yes,Yes,1898601,897B,"Victoria Parade between Morrison Place and Lansdowne Street, approximately 4m North of Webb Korfiatis Barristers & Solicitors, Part Lot 1A, 182-184 Victoria Parade, EAST MELBOURNE VIC 3002",-37.808699,144.9779406,"-37.808699, 144.9779406"
MPM1898602,Yes,Yes,1898602,894A,"Victoria Parade between Powlett Street and Clarendon Street, approximately 5m NE of Winnett Specialist Group, 382 Victoria Parade, EAST MELBOURNE VIC 3002",-37.8094259,144.9844733,"-37.8094259, 144.9844733"
MPM1898606,Yes,Yes,1898606,350A,"Stanley Street between Railway Place and Adderley Street, approximately 3m SE of 232 Stanley Street, WEST MELBOURNE VIC 3003",-37.8102101,144.9456048,"-37.8102101, 144.9456048"
MPM1898612,Yes,Yes,1898612,ZOO21,Royal Park,-37.7818288,144.9529081,"-37.7818288, 144.9529081"
MPM1898620,Yes,Yes,1898620,ZOO7,"Royal Park, approximately 84m SW of Melbourne Zoological Gardens, 6 Elliott Avenue, PARKVILLE VIC 3052",-37.785996,144.9526703,"-37.785996, 144.9526703"
MPM1898624,Yes,Yes,1898624,ZOO17,"Royal Park, approximately 92m NE of Zoo Bakery, Kiosk 6, Melbourne Zoological Gardens, 6 Elliott Avenue, PARKVILLE VIC 3052",-37.7830122,144.9539618,"-37.7830122, 144.9539618"
MPM1898627,Yes,Yes,1898627,ZOO26,Royal Park,-37.7819862,144.9499307,"-37.7819862, 144.9499307"
MPM1898632,Yes,Yes,1898632,359A,"Spencer Street between Dudley Street and Rosslyn Street, approximately 3m SW of Creffield Digital Print, Ground 456-462 Spencer Street, WEST MELBOURNE VIC 3003",-37.8095673,144.9497616,"-37.8095673, 144.9497616"
MPM1898635,Yes,Yes,1898635,359B,"Spencer Street between Dudley Street and Rosslyn Street, approximately 9m SE of Triumph City, 463-465 Spencer Street, WEST MELBOURNE VIC 3003",-37.8097549,144.9495714,"-37.8097549, 144.9495714"
MPM1898636,Yes,Yes,1898636,350C,"Stanley Street between Railway Place and Adderley Street, approximately 5m South of 202-204 Stanley Street, WEST MELBOURNE VIC 3003",-37.8098296,144.9462315,"-37.8098296, 144.9462315"
MPM1898637,Yes,Yes,1898637,350D,"Stanley Street between Railway Place and Adderley Street, approximately 4m NW of Content Hustlers, 171-173 Stanley Street, WEST MELBOURNE VIC 3003",-37.8100147,144.9463761,"-37.8100147, 144.9463761"
MPM1898639,Yes,Yes,1898639,883B,"Simpson Street between Albert Street and Victoria Parade, approximately 27m North of Birches Serviced Apartments, 160-174 Simpson Street, EAST MELBOURNE VIC 3002",-37.8103993,144.9890124,"-37.8103993, 144.9890124"
MPM1898640,Yes,Yes,1898640,875D,"Clarendon Street between Gipps Street and Grey Street, approximately 24m North of Precision Haematology, Part Ground 140 Clarendon Street, EAST MELBOURNE VIC 3002",-37.8120457,144.983411,"-37.8120457, 144.983411"
MPM1898642,Yes,Yes,1898642,893B,"Victoria Parade between Simpson Street and Powlett Street, approximately 4m NE of 502 Victoria Parade, EAST MELBOURNE VIC 3002",-37.8098246,144.9881666,"-37.8098246, 144.9881666"
MPM1898646,Yes,Yes,1898646,877D,"Clarendon Street between George Street and Hotham Street, approximately 61m SW of Vizard Foundation House, 68-70 Clarendon Street, EAST MELBOURNE VIC 3002",-37.8147587,144.9826696,"-37.8147587, 144.9826696"
MPM1898647,Yes,Yes,1898647,872A,"Clarendon Street between Albert Street and Victoria Parade, approximately 9m North of 212 Clarendon Street, EAST MELBOURNE VIC 3002",-37.8098063,144.9837843,"-37.8098063, 144.9837843"
MPM1898648,Yes,Yes,1898648,872B,"Clarendon Street between Albert Street and Victoria Parade, approximately 10m NE of The Sunnyside Foundation, 1-19 Clarendon Street, EAST MELBOURNE VIC 3002",-37.8099753,144.9834803,"-37.8099753, 144.9834803"
MPM1898651,Yes,Yes,1898651,878C,"Albert Street between Powlett Street and Clarendon Street, approximately 4m SW of Full & More, Unit 9B, 178 Albert Street, EAST MELBOURNE VIC 3002",-37.8104785,144.9850758,"-37.8104785, 144.9850758"
MPM1901852,Yes,Yes,1901852,338A,"Rathdowne Street between Queensberry Street and Pelham Street, approximately 62m North of Sheng Run House, 97-105 Rathdowne Street, CARLTON VIC 3053",-37.8040332,144.969245,"-37.8040332, 144.969245"
MPM1914212,Yes,Yes,1914212,670A,"La Trobe Street between Swanston Street and Elizabeth Street, approximately 6m North of Ikura Sushi, Shop 3, LwrGround 300 Lonsdale Street, MELBOURNE VIC 3000",-37.810038,144.9627191,"-37.810038, 144.9627191"
MPM1914215,Yes,Yes,1914215,647A,"Little Bourke Street between Queen Street and William Street, approximately 31m West of Mantra On Little Bourke, Gnd-Level 10, 471 Little Bourke Street, MELBOURNE VIC 3000",-37.8145117,144.958567,"-37.8145117, 144.958567"
MPM1914217,Yes,Yes,1914217,675B,"Little La Trobe Street between Swanston Street and Elizabeth Street, approximately 4m SW of 18-20 Little La Trobe Street, MELBOURNE VIC 3000",-37.809225,144.9628454,"-37.809225, 144.9628454"
MPM1914218,Yes,Yes,1914218,682A,"Franklin Street between Swanston Street and Elizabeth Street, approximately 7m East of Suite 1G, Ground 58 Franklin Street, MELBOURNE VIC 3000",-37.8078317,144.96117,"-37.8078317, 144.96117"
MPM1630440,Yes,Yes,1630440,PPARK1,Princes Park,-37.7827391,144.9607328,"-37.7827391, 144.9607328"
MPM1647111,Yes,Yes,1647111,857C,"Lansdowne Street between Wellington Parade and St Andrews Place, approximately 59m North of Substation 5, 2-4 Lansdowne Street, EAST MELBOURNE VIC 3002",-37.8135175,144.9778414,"-37.8135175, 144.9778414"
MPM1647112,Yes,Yes,1647112,810C,High Street between St Kilda Road and Punt Road,-37.8503502,144.982325,"-37.8503502, 144.982325"
MPM1647113,Yes,Yes,1647113,879B,"Albert Street between Simpson Street and Powlett Street, approximately 29m SW of Flat 1, 102 Albert Street, EAST MELBOURNE VIC 3002",-37.8109576,144.987491,"-37.8109576, 144.987491"
MPM1647114,No,Yes,1647114,813E,"Commercial Road between St Kilda Road and Punt Road, approximately 23m East of Parkview Dental, Suite 1, 20 Commercial Road, MELBOURNE VIC 3004",-37.8449573,144.9803257,"-37.8449573, 144.9803257"
MPM1647123,Yes,Yes,1647123,803B,"St Kilda Road between Slater Street and Armadale Street, approximately 59m NW of Just Group Cafe, Ground 457 St Kilda Road, MELBOURNE VIC 3004",-37.8401685,144.9770962,"-37.8401685, 144.9770962"
MPM1647126,Yes,Yes,1647126,801E,"St Kilda Road between Commercial Road and Moubray Street, approximately 28m SW of Rosco's @ Chevron, 525 St Kilda Road, MELBOURNE VIC 3004",-37.8455525,144.9790118,"-37.8455525, 144.9790118"
MPM1647128,Yes,Yes,1647128,881A,"Powlett Street between Grey Street and Albert Street, approximately 35m SE of 165-169 Powlett Street, EAST MELBOURNE VIC 3002",-37.8114418,144.9861748,"-37.8114418, 144.9861748"
MPM1647132,Yes,Yes,1647132,870D,"Albert Street between Clarendon Street and Eades Street, approximately 20m East of Flat 1, Ground 246 Albert Street, EAST MELBOURNE VIC 3002",-37.810256,144.983011,"-37.810256, 144.983011"
MPM1647135,Yes,Yes,1647135,882B,"Grey Street between Simpson Street and Powlett Street, approximately 28m North of 61-63 Grey Street, EAST MELBOURNE VIC 3002",-37.8119367,144.9875169,"-37.8119367, 144.9875169"
